stop_id,stop_name,stop_lat,stop_lon,location_type,parent_station,wheelchair_boarding
"1000","VERGINI","40.8564220371855","14.2554866501106","0","",""
"1003","SALERNO - RIMINI","40.8567076723215","14.2763056734187","0","",""
"1004","DE MARCO","40.8665410699915","14.2643353263891","0","",""
"1005","GUADAGNO ","40.8669370673496","14.2621623705581","0","",""
"1006","ARENACCIA - OTTOCALLI","40.867087397221","14.2687940005775","0","",""
"1007","ARPINO","40.8782036446563","14.3074782573587","0","",""
"1008","CASANOVA - NAZIONALE","40.857732120001","14.2723287482382","0","",""
"1009","MEDINA - MUNICIPIO","40.8406448110771","14.2521319859313","0","",""
"1010","SANITA' ","40.8590368232788","14.2509842966451","0","",""
"1011","SANITA'","40.8589343433324","14.2470047756602","0","",""
"1012","DE GASPERI","40.8416379473821","14.2552606706773","0","",""
"1013","CARLO III - PALAZZO FUGA","40.8620291782183","14.2652395665114","0","",""
"1014","CARLO III ","40.8618233623223","14.2654554187463","0","",""
"1015","PIAZZA CARLO III - ALIFANA","40.861940556293","14.2654689557734","0","",""
"1016","BRUNO GAETANO","40.857821998507","14.2940402005162","0","",""
"1017","UMBERTO I°","40.8489918136626","14.2635987925999","0","",""
"1018","DA MAIANO","40.8601561050334","14.2934607233286","0","",""
"1020","SANITA' ","40.8579032904842","14.2515903696994","0","",""
"1021","BRUNO GAETANO","40.8598861215228","14.2949763914007","0","",""
"1022","CALATA CAPODICHINO - CASE POPOLARI","40.8725543015617","14.270039264196","0","",""
"1023","CALATA CAPODICHINO - OSPEDALE L. BIANCHI","40.8787968237407","14.2706533645314","0","",""
"1024","CALATA CAPODICHINO - IST. G.BRUNO","40.8762668783775","14.2702239758651","0","",""
"1025","CALATA CAPODICHINO - CERVI","40.8740081363249","14.2705929405696","0","",""
"1026","CALATA CAPODICHINO - PARCO MAZZINI","40.8804780997774","14.2709135862251","0","",""
"1027","CALATA CAPODICHINO - S.GIULIANO","40.8710434861533","14.2690234219849","0","",""
"1028","CALATA CAPODICHINO - CHIESA","40.8725259802675","14.2702632420239","0","",""
"1029","CALATA CAPODICHINO - MARIGLIANO","40.8744230884122","14.2706833275919","0","",""
"1030","CALATA CAPODICHINO - FEO","40.8765116612809","14.2704705167016","0","",""
"1031","CALATA CAPODICHINO - OSPEDALE L.BIANCHI","40.879758088821","14.2710164360277","0","",""
"1032","CALATA CAPODICHINO - PARCO MAZZINI","40.8810024929208","14.2712164220153","0","",""
"1033","CALATA CAPODICHINO - CORNELIO","40.8706352834446","14.2685769653522","0","",""
"1034","BRIGANTI","40.8741029746074","14.2770716213063","0","",""
"1035","BRIGANTI - MADDALENA","40.8750814512186","14.2779629296899","0","",""
"1036","BRIGANTI - PARCHEGGIO","40.873786516302","14.276885182693","0","",""
"1037","BRIGANTI - CUPA POZZELLE","40.8707103506319","14.2718989034121","0","",""
"1038","BRIGANTI ","40.870194441776","14.2715129464888","0","",""
"1039","BRIGANTI - VIADOTTO TANGENZIALE","40.8689569443144","14.2709806410995","0","",""
"1040","BRIGANTI - VIADOTTO TANGENZIALE","40.8694900269217","14.2712328971072","0","",""
"1041","BRIGANTI ","40.8700968562013","14.2717513541685","0","",""
"1042","BRIGANTI","40.871091891971","14.272405008306","0","",""
"1043","BRIGANTI - OSPEDALE S.G.BOSCO","40.8731340945312","14.2762751740675","0","",""
"1044","BRIGANTI - OSPEDALE S.G.BOSCO","40.8732076447425","14.2765117223843","0","",""
"1045","BROGGIA - BELLE ARTI","40.8519139743892","14.2507625418365","0","",""
"1046","CASANOVA","40.8557124578843","14.268483074553","0","",""
"1047","CARAMANICO","40.8625334505578","14.2899488942981","0","",""
"1048","CASANOVA - NOVARA","40.8567026002917","14.2704950821217","0","",""
"1049","SALOMONE - AEROPORTO CIVILE","40.8731961384505","14.2847775354157","0","",""
"1050","PISACANE","40.8450439054668","14.2631120336154","0","",""
"1051","PROVINCIALE DI CASERTA","40.8865470058956","14.2762121501029","0","",""
"1052","CARLO III ","40.8617591374889","14.265272214381","0","",""
"1053","ACTON - BEVERELLO","40.8381200459757","14.2545397423487","0","",""
"1054","CAVOUR - M2","40.8551749060672","14.2552231924725","0","",""
"1055","FORIA - M1","40.8537072458186","14.2521921642074","0","",""
"1058","PRINCIPE UMBERTO ","40.8538320596468","14.2678319568978","0","",""
"1060","POGGIOREALE ","40.868282571642","14.29545715311","0","",""
"1061","DANTE - M1","40.8485604263483","14.2496371921539","0","",""
"1062","DANTE - PORT'ALBA","40.849793055303","14.2500978176082","0","",""
"1064","BRUNO GAETANO - BONIFACI","40.8568105528494","14.2928941455473","0","",""
"1065","DEI BONIFACI","40.8619439351668","14.2926740293478","0","",""
"1066","DE MARCO","40.8674267524875","14.2640792961023","0","",""
"1067","DE MARCO ","40.8683898314695","14.2646589967991","0","",""
"1068","DE MARCO","40.8696325649001","14.2638887385844","0","",""
"1069","DE MARCO","40.870051760491","14.2646435773059","0","",""
"1070","DE MARCO ","40.87044634951","14.2629541026319","0","",""
"1071","DE MARCO","40.8674350408828","14.2639664732788","0","",""
"1072","DE MARCO","40.8682861868254","14.2646512434524","0","",""
"1073","DE MARCO ","40.8696884501357","14.2638940530811","0","",""
"1074","DE MARCO","40.8699532815963","14.2647396018539","0","",""
"1075","TRAMVIA DETTA FRATTA","40.8861967283199","14.2756610542762","0","",""
"1078","ABATE DESIDERIO","40.8886833755911","14.2755296667122","0","",""
"1079","FONTANELLE - CALATA FONTANELLE","40.8581485810921","14.2453140465969","0","",""
"1080","AULISIO","40.858185891497","14.2851110515822","0","",""
"1081","DEPRETIS - LOGGIA DEI PISANI","40.8423735324993","14.254780575093","0","",""
"1082","GRIMALDI - PALAZZO DI GIUSTIZIA","40.8612822269603","14.2832534643781","0","",""
"1083","DEPRETIS - SAN MARCO","40.8402147411892","14.2537245225919","0","",""
"1084","DE ROBERTO","40.8655056510807","14.3065930364879","0","",""
"1085","DE ROBERTO","40.8650457671491","14.3050196531163","0","",""
"1086","DE ROBERTO","40.8652327841915","14.3046617164954","0","",""
"1088","DE ROBERTO","40.8645605112757","14.3014886791102","0","",""
"1089","DE MARCO","40.8667207499096","14.2642591735114","0","",""
"1090","DE ROBERTO","40.86479781456","14.30125479928","0","",""
"1091","DE PINEDO - DI VITTORIO","40.8827364758489","14.2726264485163","0","",""
"1092","GALILEO FERRARIS -  BRIN","40.8496288904636","14.2845573590704","0","",""
"1093","BRIGANTI","40.8680721607724","14.2701793012982","0","",""
"1094","DE PINEDO","40.8849842161921","14.2748710497596","0","",""
"1095","ARENACCIA","40.8576160128868","14.2710604982809","0","",""
"1096","BOLVITO ","40.8894940321065","14.2765515575427","0","",""
"1097","PIAZZA QUATTRO APRILE - ASL","40.8921934358539","14.2838696431452","0","",""
"1098","NUOVA DEL CAMPO - CIMITERO DEL PIANTO","40.8690641786447","14.2837836597391","0","",""
"1099","NUOVA DEL CAMPO","40.868069576808","14.2817414637116","0","",""
"1100","DON BOSCO - CARLO III","40.8635767199957","14.2677765636815","0","",""
"1101","DON BOSCO - SALESIANI","40.8676740310719","14.273243408112","0","",""
"1102","NUOVA DEL CAMPO ","40.869245830447","14.2775219879234","0","",""
"1103","NUOVA DEL CAMPO - DE GIAXA","40.8689584331002","14.2791004168681","0","",""
"1104","NUOVA DEL CAMPO","40.8679579043318","14.2818910019901","0","",""
"1105","DON BOSCO - PROVINCIA","40.8661886264417","14.2712542586506","0","",""
"1106","NUOVA DEL CAMPO - CIMITERO PIANTO","40.8690573071736","14.284127868802","0","",""
"1107","DON BOSCO - SALESIANI","40.8676719372483","14.2729111697497","0","",""
"1109","DON BOSCO - CARLO III","40.8639383818579","14.2679861648134","0","",""
"1110","NUOVA DEL CAMPO - DE GIAXA","40.8691481318576","14.279184393312","0","",""
"1111","NUOVA DEL CAMPO ","40.8689834963842","14.2759109669296","0","",""
"1112","NUOVA DEL CAMPO ","40.8688079400085","14.2759277127169","0","",""
"1113","DON BOSCO - PROVINCIA","40.8666267722226","14.2714511822321","0","",""
"1115","PROFUMO","40.8667541053033","14.2638903080633","0","",""
"1117","CARAMANICO","40.8627983365807","14.2900025693324","0","",""
"1118","CARAMANICO","40.8644561243317","14.2886662539988","0","",""
"1119","PIAZZA GARIBALDI","40.8528884021643","14.2710833101249","0","",""
"1121","COLOMBO-PORTO (CAPOLINEA LINEA 1-4)","40.8397379728996","14.2553732704754","0","",""
"1122","STADERA - PONTE FS","40.8692134795868","14.2975142601802","0","",""
"1123","COLOMBO - BEVERELLO","40.8396985377992","14.25562174563","0","",""
"1124","COLOMBO-DE GASPERI","40.8416558214187","14.2569529274561","0","",""
"1125","GARIBALDI - ATTESTAMENTO","40.8529983870462","14.2713912009977","0","",""
"1126","NUOVA POGGIOREALE","40.8663901114516","14.2905552116773","0","",""
"1127","MALTA - ZARA","40.8611271314447","14.2764474160788","0","",""
"1128","SALOMONE","40.873161570236","14.2855780514135","0","",""
"1129","DE MARCO","40.8692188823801","14.2638236882679","0","",""
"1130","COSTANTINOPOLI","40.8524796227172","14.251707276164","0","",""
"1131","GARIBALDI","40.8526649298566","14.2690492527928","0","",""
"1132","GALILEO FERRARIS - CIRCUMVESUVIANA E.A.V.","40.8505835530334","14.2736822802945","0","",""
"1133","GALILEO FERRARIS - CIRCUMVESUVIANA E.A.V.","40.850419204787","14.275481379318","0","",""
"1134","GALILEO FERRARIS - AUTOSTRADA","40.8500969658833","14.2786850249667","0","",""
"1135","GALILEO FERRARIS ","40.8498520904348","14.2791414515918","0","",""
"1136","NOVARA","40.8565220770124","14.2709735053427","0","",""
"1137","GALILEO FERRARIS - BRIN","40.8493079686247","14.2828961194877","0","",""
"1138","GALILEO FERRARIS - POSTE","40.8494512229373","14.281168009439","0","",""
"1139","GALILEO FERRARIS - QUESTURA","40.8496770720098","14.2864896756799","0","",""
"1140","GALILEO FERRARIS - GIANTURCO","40.8497003460544","14.2887997981799","0","",""
"1141","GALILEO FERRARIS  -POLIZIA DI STATO","40.8498602519781","14.2869770717929","0","",""
"1142","GALILEO FERRARIS - BRECCE A SANT'ERASMO","40.8490468508753","14.2914441905037","0","",""
"1143","FERRARIS","40.8463433776266","14.2996408220356","0","",""
"1144","GALILEO FERRARIS - GIANTURCO","40.8493396956325","14.2909431839713","0","",""
"1145","GARIBALDI","40.8523651728199","14.2719173143233","0","",""
"1146","GALILEO FERRARIS - MANIFATTURA TABACCHI","40.8483826813606","14.2942679185172","0","",""
"1147","ARENACCIA ","40.8597714755751","14.2707402417898","0","",""
"1148","FIRENZE","40.8541433718519","14.27078475846","0","",""
"1149","CORSO GARIBALDI ","40.8543462880329","14.2678260013592","0","",""
"1150","FONTANELLE - VICO SAN NICOLA","40.8589256547778","14.2436115122883","0","",""
"1151","FORIA - ORTO BOTANICO","40.8608445067583","14.2638139967854","0","",""
"1152","FORIA - CAVARA","40.8590474917363","14.2614407467778","0","",""
"1153","FORIA -CESARE ROSSAROLL","40.8579323864944","14.259913080607","0","",""
"1154","FORIA - CASERMA GARIBALDI","40.8570048943113","14.2587255370131","0","",""
"1155","FORIA - DUOMO","40.8561738531092","14.2575123114538","0","",""
"1156","FORIA - M2","40.8553728876272","14.2562339808877","0","",""
"1157","FORIA - CASERMA GARIBALDI","40.8570349930292","14.2590450902305","0","",""
"1158","FORIA - PONTENUOVO","40.8581888995143","14.2605805854249","0","",""
"1159","FORIA - TENORE","40.8599422783842","14.2628896106323","0","",""
"1160","ARENACCIA","40.8591885677727","14.2704440785213","0","",""
"1161","DELLE GALASSIE STAZIONAMENTO","40.8897161661343","14.2680849638201","0","",""
"1162","DELLE GALASSIE ","40.8899204951914","14.2697653479746","0","",""
"1163","DELLE GALASSIE ","40.890098918738","14.2694903653262","0","",""
"1164","GARIBALDI - VOLTURNO","40.85768559782","14.2671147262777","0","",""
"1165","GARIBALDI - CASANOVA","40.856209772296","14.2673564156955","0","",""
"1166","GARIBALDI - CARLO III","40.8614558679175","14.2664532028292","0","",""
"1167","GARIBALDI - S.MARIA DELLA FEDE","40.8575202749129","14.2673241799255","0","",""
"1168","GARIBALDI - PORZIO","40.859405439807","14.2669978838505","0","",""
"1169","GARIBALDI - CARLO III","40.860993482236","14.26669560985","0","",""
"1170","GARIBALDI - CIRCUMVESUVIANA","40.849178647945","14.2687536443193","0","",""
"1171","PRINCIPE UMBERTO","40.8538636264109","14.2682853276597","0","",""
"1172","GARIBALDI - CIRCUMVESUVIANA","40.848800137272","14.268728147726","0","",""
"1173","DELLE GALASSIE - LARGO COSTELLAZIONI","40.8899562823812","14.2675956293034","0","",""
"1174","GARIBALDI - PORZIO","40.8598630962277","14.2667199418074","0","",""
"1175","GARIBALDI - PRINCIPE UMBERTO","40.8540464215466","14.2678518444165","0","",""
"1176","GARIBALDI - UMBERTO I","40.8524620052142","14.2680889322884","0","",""
"1178","MACELLO","40.8636452465154","14.2946754814459","0","",""
"1179","DE MARCO","40.8691497079321","14.2638911218678","0","",""
"1180","GALILEO FERRARIS - MANIFATTURA TABACCHI","40.8480884005028","14.2947574231847","0","",""
"1181","CARLO III","40.8639568143148","14.2673422417681","0","",""
"1182","CARLO III","40.8636506293459","14.2673574818415","0","",""
"1183","UMBERTO - NOLANA","40.8503529125452","14.2661176844341","0","",""
"1184","BRIN","40.8475680602757","14.2821564465708","0","",""
"1185","BRIN ","40.8488523343075","14.2832159974433","0","",""
"1186","GALILEO FERRARIS - POSTE","40.8494166121048","14.2808129532784","0","",""
"1187","GARIBALDI - LUCCI ","40.8511813122425","14.271993995009","0","",""
"1188","FORIA -M1","40.8538046899789","14.2526330021379","0","",""
"1189","RIPOSO","40.8717773805867","14.2856484292361","0","",""
"1190","RIPOSO","40.872899210274","14.2864243673852","0","",""
"1191","GRIMALDI - PALAZZO DI GIUSTIZIA","40.8611597670522","14.2838421176062","0","",""
"1192","RIPOSO","40.874080375995","14.289810572245","0","",""
"1193","FONTANELLE","40.8590378741776","14.2421805128219","0","",""
"1194","COPPOLA","40.8570638897486","14.2923397483537","0","",""
"1195","RIPOSO","40.8744331427132","14.2932721672067","0","",""
"1196","PONTE DELLA MADDALENA - PROVVEDITORATO","40.8449204206807","14.2792128881879","0","",""
"1197","GARIBALDI - PRINCIPE UMBERTO","40.8540029732535","14.267764885813","0","",""
"1198","BRIGANTI","40.8718702504687","14.2744139152182","0","",""
"1199","BRIGANTI ","40.8720211406514","14.2740562503878","0","",""
"1201","LUCCI ","40.8497800725974","14.273978145569","0","",""
"1203","GUSSONE","40.8650612950525","14.2689141810942","0","",""
"1205","BRUNO GAETANO","40.8572598698443","14.2934499710788","0","",""
"1206","BRUNO GAETANO","40.8592941032596","14.2946534153311","0","",""
"1207","DAMAIANO","40.8599100071044","14.2929917008711","0","",""
"1208","MIRAGLIA - PARISE","40.8668470870616","14.2948383600096","0","",""
"1210","MADDALENA - S.MARIA DEL PIANTO","40.870111021746","14.2840868526679","0","",""
"1211","MADDALENA - AEROPOTO CIVILE","40.8731005047086","14.2809869154615","0","",""
"1212","MADDALENA - CUPA POZZELLE","40.8783143871858","14.2756431383287","0","",""
"1213","MADDALENA - AEROPORTO CIVILE","40.8733166887713","14.280984576586","0","",""
"1214","MADDALENA - DE GIAXA","40.8719484271757","14.2821597028434","0","",""
"1217","MADDALENA - AEROPORTO MILITARE","40.8750713035466","14.2792210264092","0","",""
"1218","PARISE","40.865997693171","14.2933543600228","0","",""
"1219","BRIN ","40.8490025580911","14.2830364314347","0","",""
"1220","DEL MACELLO","40.8636027706196","14.2943585231379","0","",""
"1222","MADDALENA - BRIGANTI","40.8761707279263","14.2778472493079","0","",""
"1223","LUCCI/STELLA POLARE","40.8473389303038","14.2769261179194","0","",""
"1224","GARIBALDI ","40.853561277012","14.2717911524088","0","",""
"1225","ALIBUS - GARIBALDI - ROSA PARKS","40.8530952857073","14.2715080708378","0","",""
"1226","COM.MADDALENA - TANGENZIALE","40.8704765824411","14.2839511798289","0","",""
"1227","DE ROBERTO","40.8643026955122","14.2976023452264","0","",""
"1228","SS.GIOVANNI E PAOLO - ZURLO","40.8671369277948","14.2680814731763","0","",""
"1229","MARINA - DUOMO","40.8457299243238","14.263179390013","0","",""
"1230","MARINA - TORRE ARAGONESE","40.8461591819027","14.2677785129053","0","",""
"1231","VIALE DELLA COSTITUZIONE - ISOLA G","40.8569295265081","14.2793672810104","0","",""
"1232","DELLA COSTITUZIONE - MORO","40.8567622523949","14.2821572580749","0","",""
"1235","VIALE DELLA COSTITUZIONE - SOTTOPASSO","40.856629969892","14.2768433878487","0","",""
"1236","MEDINA - MUNICIPIO","40.8407670642221","14.2523702415038","0","",""
"1237","VIALE DELLA COSTITUZIONE - ISOLA B","40.8564661491482","14.2794553539104","0","",""
"1238","MARINA - PORTA DI MASSA","40.8435904371429","14.2583971171584","0","",""
"1239","MERIDIONALE - PAVIA ","40.8543478980136","14.2729227985194","0","",""
"1240","MERIDIONALE - POSTE ","40.8546092524725","14.275670049331","0","",""
"1242","MONTEOLIVETO - FEDERICO II - ARCHITETTURA","40.8442372949267","14.2518503339715","0","",""
"1243","MUNICIPIO","40.8389202923227","14.2519884056176","0","",""
"1244","VIALE DELLA COSTITUZIONE - MORO","40.8572075796355","14.2820634661486","0","",""
"1246","MUSEO NAZIONALE","40.8530144687807","14.2502165720295","0","",""
"1249","OTTOCALLI","40.8691107139794","14.2682347735077","0","",""
"1250","PAGANO M.","40.8566887574514","14.2535467833335","0","",""
"1251","BRIN","40.8536289306384","14.2870582738622","0","",""
"1252","BRIN","40.8519926511318","14.284379792953","0","",""
"1253","PESSINA","40.8514990972639","14.2499391851736","0","",""
"1254","RIPOSO","40.8732205414713","14.2866586997656","0","",""
"1256","S.MARIA DEL PIANTO-STAZIONAMENTO","40.8720710639075","14.2951787216765","0","",""
"1259","SAN GENNARO DEI POVERI","40.860385349862","14.2477981404108","0","",""
"1260","SAN GENNARO DEI POVERI","40.861532460993","14.2468863609631","0","",""
"1261","SAN GENNARO DEI POVERI","40.860402455942","14.247658531188","0","",""
"1262","FONTANELLE - CENTRO LA TENDA","40.858944697753","14.2465211635118","0","",""
"1263","FONTANELLE - CHIESA","40.8589599813308","14.2440382584486","0","",""
"1267","TRANWAY","40.8902367530717","14.2828402005401","0","",""
"1268","PUGLIE ","40.8852967890859","14.3202027545415","0","",""
"1269","PUGLIE - COSTA","40.877002484621","14.3108667230081","0","",""
"1270","BEVERELLO - ANGIOINO","40.8386810743847","14.2578830866461","0","",""
"1271","IMMACOLATELLA - PORTA DI MASSA","40.8415945347652","14.2577497652088","0","",""
"1272","IMMACOLATELLA - PORTA DI MASSA","40.8416639240432","14.2578937053836","0","",""
"1277","PUGLIE ","40.878003596535","14.312815446361","0","",""
"1278","UMBERTO","40.851138857043","14.266977153093","0","",""
"1279","GARIBALDI","40.8516450879756","14.26834442392","0","",""
"1283","SANTA M. AI  MONTI","40.8725517162092","14.2653754269227","0","",""
"1284","RIPOSO ","40.8737938815729","14.2882067644968","0","",""
"1289","AEROPORTO","40.8765355867781","14.2835948106446","0","",""
"1290","AEROPORTO","40.8766606350544","14.2830428710523","0","",""
"1294","MURIALDO","40.856163839063","14.2909997479474","0","",""
"1296","TOLEDO - VII SETTEMBRE","40.8468876366233","14.2493683899733","0","",""
"1297","TOLEDO - CARITÀ","40.8451161478095","14.2491600269379","0","",""
"1298","RUFFO DI CALABRIA - AEROPORTO","40.8752818779143","14.2848199388337","0","",""
"1300","SALOMONE - MADDALENA","40.8724637298126","14.2836105513453","0","",""
"1302","SANFELICE","40.8434052804428","14.2537988662386","0","",""
"1306","STADERA - PONTE FS","40.8692633156561","14.2974140526374","0","",""
"1310","STADERA - PALAZZO DELLO SPORT","40.8707289315396","14.2995813931344","0","",""
"1312","PUGLIE ","40.8931987572394","14.3258674658346","0","",""
"1313","PUGLIE - PARCO PLATANI","40.8881991687257","14.3212591713686","0","",""
"1314","PUGLIE - PARCO IL CEDRO","40.8909670762033","14.3231954792277","0","",""
"1315","PUGLIE","40.8769292743885","14.3103760899414","0","",""
"1319","TADDEO DA SESSA - PORZIO","40.854978036792","14.2777363370831","0","",""
"1320","TADDEO DA SESSA","40.8557675571931","14.2873586499908","0","",""
"1325","UMBERTO I - POERIO","40.8497744559762","14.264841703358","0","",""
"1326","UMBERTO I - COLLETTA","40.8487711266994","14.2636518279117","0","",""
"1327","UMBERTO I - DUOMO","40.8472121072424","14.2608342915459","0","",""
"1328","UMBERTO I - N. AMORE","40.8466942835959","14.260436712836","0","",""
"1329","UMBERTO I ","40.8455884311804","14.258669627909","0","",""
"1330","UMBERTO I","40.8457202111598","14.2585697001996","0","",""
"1335","TADDEO DA SESSA - LARGO TERRACINI","40.8555332921377","14.2822654387644","0","",""
"1339","VESPUCCI - PREFETTURA","40.8466723208612","14.2747456203997","0","",""
"1340","PATERNUM ","40.8934805628576","14.2866068887758","0","",""
"1341","VESPUCCI","40.8466437689738","14.2753297318122","0","",""
"1342","VESPUCCI - OSPEDALE LORETO MARE","40.8465098586504","14.2730429830116","0","",""
"1343","TRIESTE E TRENTO ","40.8370522311175","14.2489337409545","0","",""
"1344","VESPUCCI - GARIBALDI","40.846336910883","14.2703495685831","0","",""
"1345","ARENA ALLA SANITA' - S. FELICE","40.8580849215625","14.2514429137567","0","",""
"1346","SANITA' - BASILICA S.M.ALLA SANITÀ","40.8594389867653","14.2491050971595","0","",""
"1347","PIAZZA SANITA'","40.8593685473648","14.2493550572611","0","",""
"1348","SANITA' ","40.8591743417886","14.2506594277011","0","",""
"1349","ARENACCIA  ","40.8678324554622","14.2683793771529","0","",""
"1350","TENORE","40.8604372393139","14.2614039424991","0","",""
"1351","PATERNUM - PROTEZIONE CIVILE","40.8944200262074","14.2892173769718","0","",""
"1352","PATERNUM ","40.8939332098578","14.2876971418584","0","",""
"1353","QUATTRO APRILE - CASORIA","40.8933445702784","14.2857387940994","0","",""
"1354","PIAZZA QUATTRO APRILE","40.8921605822027","14.2836563220549","0","",""
"1355","SAN PIETRO A PATIERNO ","40.889314004242","14.2822121327529","0","",""
"1356","SAN PIETRO A PATIERNO ","40.8893492960487","14.2820930478752","0","",""
"1357","NUOVO TEMPIO ","40.8871625545351","14.2784145496937","0","",""
"1358","NUOVA DETTA CASORIA","40.8801796542192","14.3065111317886","0","",""
"1359","NUOVO TEMPIO ","40.8883577735816","14.2805487718988","0","",""
"1360","NUOVO TEMPIO ","40.886284128675","14.2766690341863","0","",""
"1361","NUOVO TEMPIO ","40.8872755725666","14.2781924326841","0","",""
"1362","NUOVO TEMPIO ","40.886150744254","14.2762283374563","0","",""
"1364","PUGLIE","40.8780357189104","14.3125359194746","0","",""
"1366","PUGLIE - DEPOSITO ANM","40.8798760907459","14.31525854064","0","",""
"1367","TANUCCI ","40.8655387639862","14.2660818340802","0","",""
"1368","GUADAGNO ","40.8672735286418","14.2612478898688","0","",""
"1369","S. EFRAMO","40.8677270942113","14.2596319746303","0","",""
"1370","PIAZZA CAVOUR","40.8548964671226","14.2536024939059","0","",""
"1372","DIACONO","40.8884623701483","14.2742386335626","0","",""
"1373","TANUCCI ","40.8649265312406","14.2668420829176","0","",""
"1374","VESPUCCI - GARIBALDI","40.8463918940076","14.2701026489157","0","",""
"1375","MONTE FAITO ","40.8878360577447","14.2727706198725","0","",""
"1376","DELLO STELVIO ","40.8890479019275","14.2728078006964","0","",""
"1377","MONTE TIFATA","40.8863506161422","14.2715902866733","0","",""
"1379","MONTE FAITO ","40.8900697653546","14.2741468794384","0","",""
"1380","MASONI ","40.8747669902781","14.2652559969841","0","",""
"1381","MASONI ","40.8764810481903","14.2656464926554","0","",""
"1382","MASONI ","40.8776007517617","14.266067309336","0","",""
"1383","S. MARIA AI MONTI","40.8727137781308","14.265361768183","0","",""
"1384","DELLO STELVIO ","40.889486236962","14.270894839755","0","",""
"1385","DELLO STELVIO ","40.8890498318046","14.2716860369765","0","",""
"1386","RUFFO DI CALABRIA - CARBONE","40.8746443532787","14.2851624850367","0","",""
"1388","PUGLIE ","40.8853569479812","14.3204751408711","0","",""
"1389","TANUCCI","40.8657825110709","14.2655257896569","0","",""
"1390","ACTON - MOLOSIGLIO","40.8360056725521","14.251460638789","0","",""
"1391","TRAMVIE DETTA FRATTA ","40.8882204148219","14.2758734221424","0","",""
"1394","TADDEO DA SESSA","40.855915121512","14.2871850351136","0","",""
"1397","FILANGIERI - CAVALLERIZZA","40.8365648212036","14.2402576472016","0","",""
"1398","PIAZZA DEI MARTIRI","40.8342513093856","14.2421485294278","0","",""
"1399","ARENACCIA ","40.8665519494405","14.2688799877541","0","",""
"1403","PATERNUM","40.8942321008014","14.2901512794962","0","",""
"1405","AULISIO - PALAZZO DI GIUSTIZIA","40.8606652876108","14.2847254705312","0","",""
"1409","DE ROBERTO - SELENIA","40.8653417711072","14.3070545560795","0","",""
"1411","NUOVA POGGIOREALE - MALTA","40.859265490259","14.2754641903986","0","",""
"1415","GUADAGNO ","40.8664432113027","14.2631171521462","0","",""
"1416","SANT'ANNA DEI LOMBARDI","40.8468573149069","14.2499702786642","0","",""
"1417","MASONI ","40.8815093454045","14.2659113792262","0","",""
"1418","MASONI ","40.8813929260481","14.2660194858313","0","",""
"1421","LUCCI - GARIBALDI","40.8515114888463","14.2720791782242","0","",""
"1422","BRIN","40.8462829904169","14.2811948474205","0","",""
"1425","GIOVAN BATTISTA VICO","40.8660102014228","14.265139201526","0","",""
"1426","VETERINARIA ","40.8652369750735","14.2625490873475","0","",""
"1427","VESPUCCI - LORETO MARE OSPEDALE","40.8465355229154","14.2723342382903","0","",""
"1429","VETERINARIA ","40.8638094412938","14.261888573288","0","",""
"1430","TANUCCI ","40.8647359953948","14.2673366210326","0","",""
"1431","SANFELICE - BOVIO","40.8434770363004","14.2547053565364","0","",""
"1433","PUGLIE - DEPOSITO ANM","40.8797824430854","14.3154167653707","0","",""
"1435","VETERINARIA ","40.8620106519755","14.2609296433131","0","",""
"1438","STADERA - SANSEVERINO","40.8756507414181","14.3077855383087","0","",""
"1439","STADERA ","40.8759059373467","14.3078298650191","0","",""
"1440","PARISE","40.866631008496","14.2926834902052","0","",""
"1445","CROCE - COMUNE DI CASORIA","40.8791796251166","14.31100194376","0","",""
"1446","COLASANTO","40.8785638872786","14.3097176364637","0","",""
"1448","CROCE","40.881346144474","14.3125165034556","0","",""
"1449","CROCE - PARCO BLU","40.8824428098901","14.312879032983","0","",""
"1450","CASORIA PASCOLI - PARCO DEI PINI","40.882959230052","14.3111081456919","0","",""
"1451","CROCE - PARCO IL GIARDINO","40.8835082650535","14.3132953087867","0","",""
"1452","MINICHINI","40.8677680870659","14.2660660017413","0","",""
"1453","NICOLINI ","40.8696191976537","14.2674489320877","0","",""
"1454","NICOLINI ","40.869949917596","14.2670418132733","0","",""
"1455","NICOLINI ","40.8714306144511","14.2661502825964","0","",""
"1456","NICOLINI ","40.8706334428961","14.2668681375901","0","",""
"1458","MIRAGLIA","40.8681306368935","14.2961913658548","0","",""
"1462","ACTON - BEVERELLO","40.8383793804516","14.2543448695714","0","",""
"1463","ACTON","40.8361396602403","14.2513068452775","0","",""
"1467","STADERA ","40.8725780584066","14.3020965284894","0","",""
"1468","STADERA","40.8725711062412","14.3021600725688","0","",""
"1469","NAZIONALE","40.8577641715775","14.273841147363","0","",""
"1471","CASORIA","40.8953561390015","14.2986599815681","0","",""
"1472","CASORIA PASCOLI ","40.8836097482522","14.308418930805","0","",""
"1481","STADERA","40.874443930008","14.3048676094853","0","",""
"1482","STADERA","40.8744511966802","14.3048335273412","0","",""
"1483","FERRARIS - IMPARATO","40.8465601197072","14.2998945387035","0","",""
"1486","MARCHESE CAMPODISOLA ","40.8434448105094","14.25590465016","0","",""
"1487","MARINA - OREFICI","40.8445129440597","14.2596679658343","0","",""
"1488","MARINA - OREFICI","40.8445275402034","14.2598368417242","0","",""
"1489","GIANTURCO ","40.8571755231695","14.2879858634558","0","",""
"1490","MARINA - MERCATO","40.8462031849465","14.2676149172541","0","",""
"1491","MARINA - DUOMO","40.8458006609341","14.2631115731428","0","",""
"1493","BOVIO","40.8438590491316","14.2560222847344","0","",""
"1494","BOVIO ","40.8440117828919","14.2558068541852","0","",""
"1495","PUGLIE","40.8944271020529","14.3271905151267","0","",""
"1496","PUGLIE - PADULA","40.894288712774","14.3266310006792","0","",""
"1499","DEL RIPOSO -VARCO 8","40.87467394424","14.2936208912433","0","",""
"1507","COLOMBO - DE GASPERI","40.8415976701101","14.2568375566617","0","",""
"1509","DOLOMITI","40.8876604269123","14.2713481374762","0","",""
"1510","COLOMBO","40.8417602984048","14.2571915954436","0","",""
"1511","MASONI ","40.8749560750224","14.2652420386391","0","",""
"1513","D'AMBROSIO - BRIGANTI","40.8682560744829","14.269837270042","0","",""
"1514","PASCOLI","40.8935603691137","14.3011125234807","0","",""
"1516","LUCE","40.89478312314","14.2918637637126","0","",""
"1519","ROSA DEI VENTI ","40.8792713306535","14.305265512151","0","",""
"1520","ROSA DEI VENTI ","40.8769004544578","14.3027445854949","0","",""
"1522","BISCARDI","40.8613434934039","14.2815174968798","0","",""
"1526","ARENACCIA","40.8618601595087","14.2704011082656","0","",""
"1527","ARENACCIA ","40.8643467353515","14.2697354452059","0","",""
"1528","ARENACCIA ","40.8643606872442","14.2694112469744","0","",""
"1529","ARENACCIA ","40.8624282202657","14.2699878865221","0","",""
"1556","NUOVA DETTA CASORIA","40.8827962782903","14.3079645004584","0","",""
"1717","SAN VINCENZO ALLA SANITA'","40.8594227525598","14.2479959038098","0","",""
"1801","NUOVA POGGIOREALE - CARAMANICO","40.8652965768131","14.2882407980178","0","",""
"1802","NUOVA POGGIOREALE","40.8642794920109","14.2861435172682","0","",""
"1803","NUOVA POGGIOREALE - BISCARDI","40.8620653363656","14.281481776251","0","",""
"1804","NUOVA POGGIOREALE - MALTA","40.8598867124985","14.2769567535268","0","",""
"1805","NUOVA POGGIOREALE - MALTA","40.8593409175626","14.2759564118467","0","",""
"1806","NUOVA POGGIOREALE - BISCARDI","40.8616339699732","14.2808121481578","0","",""
"1807","NUOVA POGGIOREALE","40.8631435268369","14.2839230806493","0","",""
"1808","NUOVA POGGIOREALE - CARAMANICO","40.8649328113186","14.2876527489701","0","",""
"1810","PIAZZA NAZIONALE","40.858741463985","14.2737829878049","0","",""
"1811","PIAZZA NAZIONALE","40.8586295938101","14.2739647316028","0","",""
"1905","MASONI ","40.8774687627331","14.2658521721473","0","",""
"1907","BATTISTI","40.8432809146598","14.250924470042","0","",""
"1910","BRIN - ATTESTAMENTO","40.8465765155112","14.2805377241299","0","",""
"1913","BRIGANTI - BIBLIOTECA","40.8710246188501","14.2731652373606","0","",""
"1916","CARLO III","40.8627300958171","14.267091751187","0","",""
"1921"," NOVARA ","40.8555959632334","14.271426706577","0","",""
"1926","FONTANELLE ","40.8580654551402","14.2450005742324","0","",""
"1927","TRANVIE DETTA FRATTE ","40.8901402704133","14.2760483546298","0","",""
"1929","TERRACINI - TADDEO DA SESSA","40.8556844110687","14.2819405045584","0","",""
"1931","AULISIO","40.8585541041594","14.2849291200942","0","",""
"1932","TADDEO DA SESSA - OFFICINE FS","40.8553450487634","14.2831394947965","0","",""
"1935","DEL RIPOSO","40.8707650399962","14.2849609350607","0","",""
"1938","DEL MACELLO","40.864028198479","14.2961665132977","0","",""
"1939","BRIGANTI ","40.8710390649331","14.2733134178151","0","",""
"1943","PUGLIE - PARCO PLATANI","40.8882460579875","14.3215732516517","0","",""
"1944","PUGLIE ","40.8903948677331","14.3223970801875","0","",""
"1950","RIMINI","40.8575817829977","14.2749198581787","0","",""
"2001","AMEDEO ","40.837300349597","14.2336521387182","0","",""
"2002","COROGLIO - CITTÀ DELLA SCIEZA","40.8052642999555","14.1740263184145","0","",""
"2004","G.SERRA","40.8358969139649","14.2472062087431","0","",""
"2005","BAGNOLI - LA PIETRA","40.8171262581479","14.1595370908599","0","",""
"2006","RIVIERA DI CHIAIA","40.8323367007651","14.2266029766678","0","",""
"2007","CARAVAGGIO","40.8353096186237","14.2033490889333","0","",""
"2008","BECCADELLI - NUOVA AGNANO","40.8204210269776","14.1735620583847","0","",""
"2009","TASSO - FALCONE","40.8379513385997","14.2188318413554","0","",""
"2010","VIA DI POZZUOLI","40.8155935449396","14.162455506124","0","",""
"2011","PICASSO","40.8563971808191","14.1636447003433","0","",""
"2012","ANTINIANA","40.8276681499786","14.1549004357313","0","",""
"2013","SCARFOGLIO","40.8284549660795","14.1577871119122","0","",""
"2014","SCARFOGLIO ","40.8295352084843","14.1607739281338","0","",""
"2015","MONTE DI DIO","40.8349371210972","14.2450762234741","0","",""
"2016","BARBAGALLO","40.8233865643436","14.1775956886858","0","",""
"2017","RUGGIERO","40.8377676118265","14.1658273117712","0","",""
"2018","ARCOLEO","40.8320160712152","14.2433422020407","0","",""
"2019","CONSOLE ","40.834687162217","14.2503177046201","0","",""
"2021","ARLOTTA - METASTASIO","40.8311485067303","14.2001996811069","0","",""
"2024","PIAZZALE G.D'ANNUNZIO - VIA CLAUDIO SCUOLA POLITECNICA DELLE SCIENZE DI BASE","40.8300895220839","14.1926593623081","0","",""
"2025","AUGUSTO - SAN VITALE","40.826638127149","14.2025545453475","0","",""
"2026","AUGUSTO - VENIERO","40.8263071035887","14.1996322861313","0","",""
"2027","AUGUSTO - POLITECNICO","40.8258106490677","14.1962495524362","0","",""
"2028","CASSIODORO","40.837828424605","14.2007563389115","0","",""
"2029","PIEDIGROTTA","40.8306245099978","14.2199763304224","0","",""
"2030","VIRGIN","40.823151861429","14.1775274369895","0","",""
"2031","MARECHIARO","40.7985402459084","14.1898636502432","0","",""
"2033","MARECHIARO","40.796526639827","14.1901221930465","0","",""
"2034","RUGGIERO ","40.8380686021729","14.1667154967779","0","",""
"2035","RUGGIERO","40.8353180280122","14.1625631279457","0","",""
"2036","ANTINIANA","40.8278107274175","14.1546881227531","0","",""
"2037","PIAVE - TEVERE","40.8417585062449","14.2077734372776","0","",""
"2038","MARECHIARO","40.7958294415962","14.1914080054157","0","",""
"2039","MARECHIARO","40.7966906239393","14.1933739075641","0","",""
"2041","MARECHIARO","40.7971647709827","14.190217254723","0","",""
"2042","MARECHIARO","40.7958336497305","14.1912963102964","0","",""
"2043","MARECHIARO","40.8008542882891","14.1894850587527","0","",""
"2044","BIXIO - ARLOTTA","40.8318982514119","14.2004960680639","0","",""
"2045","BIXIO ","40.8329558742211","14.2023246669684","0","",""
"2046","BIXIO ","40.8329748732753","14.2024667623173","0","",""
"2047","BIXIO - CONSALVO","40.8344033547545","14.2032146464757","0","",""
"2048","BIXIO - CONSALVO","40.8342758971045","14.2030204744533","0","",""
"2049","BOCCACCIO - CASALE","40.801769690719","14.1901381078698","0","",""
"2051","CARACCIOLO - CAPITANERIA DI PORTO","40.8257574194367","14.2206589235422","0","",""
"2052","CARAVAGGIO - LOGGETTA","40.8346736226366","14.2012633139341","0","",""
"2053","CARAVAGGIO","40.8353067935122","14.2035922665169","0","",""
"2054","CARAVAGGIO - IST. GIORDANO","40.8350781637256","14.2057091601337","0","",""
"2055","CARAVAGGIO ","40.8351436494406","14.2073718337879","0","",""
"2056","CARAVAGGIO","40.833936894936","14.2080800416733","0","",""
"2057","CARAVAGGIO - ENEL","40.8328237336048","14.2099583087063","0","",""
"2058","CARAVAGGIO","40.8342962645973","14.2092529192936","0","",""
"2059","CARAVAGGIO - MANZONI","40.835736512036","14.2104100199419","0","",""
"2060","CARAVAGGIO - MANZONI","40.8358757437787","14.2110103022942","0","",""
"2061","CARAVAGGIO- PARCO MILLEFIORI","40.8356897442485","14.209500262873","0","",""
"2062","CARAVAGGIO ","40.8338959555656","14.2093347684705","0","",""
"2063","CARAVAGGIO - ENEL","40.8332189708057","14.2097935028016","0","",""
"2064","CARAVAGGIO ","40.8341480845602","14.2080063658095","0","",""
"2065","CARAVAGGIO ","40.8353672292532","14.2071349222885","0","",""
"2066","CARAVAGGIO - IST. GIORDANO","40.8351291053477","14.2052578477719","0","",""
"2068","CARAVAGGIO - LOGGETTA","40.8349892671411","14.2019652319937","0","",""
"2069","RIVIERA DI CHIAIA","40.8330001908574","14.2281048261494","0","",""
"2070","PASCOLI  ","40.8041429119417","14.1875070613931","0","",""
"2071","PASCOLI - POSTE","40.8046719216267","14.188434207247","0","",""
"2072","PASCOLI - PADULA","40.8048678314042","14.1906754254975","0","",""
"2073","PADULA - MANZONI","40.8065078214795","14.192027779507","0","",""
"2074","S.PASQUALE - POERIO","40.8337926665595","14.2365452934282","0","",""
"2076","ACTON - PLEBISCITO","40.8345260392339","14.251038520756","0","",""
"2077","NUOVA BAGNOLI - AGNANO","40.8166900016394","14.175229856118","0","",""
"2078","NUOVA BAGNOLI - CARAFA","40.8149409263256","14.170001818694","0","",""
"2079","CATTOLICA","40.8110587928331","14.1877872846019","0","",""
"2080","CATTOLICA","40.8110390248043","14.187538542496","0","",""
"2081","CATTOLICA ","40.8010955571492","14.1763505467174","0","",""
"2082","CATTOLICA ","40.8011027874983","14.1761015114135","0","",""
"2083","CATTOLICA","40.8133221538527","14.1887497207659","0","",""
"2084","CATTOLICA","40.8129617051914","14.1887333621902","0","",""
"2085","BRUNO - YAN PALACH","40.8310260064992","14.2224711023622","0","",""
"2086","PALLUCCI ","40.8575080939256","14.1616904979283","0","",""
"2087","CATTOLICA","40.8026610348262","14.1811353699975","0","",""
"2088","CINTIA  - CLINICA CENTER","40.837246640165","14.1898013778573","0","",""
"2089","CIRCUM. CAV. AOSTA","40.8149946219627","14.1847380372045","0","",""
"2090","COROGLIO","40.802589088544","14.1751987483258","0","",""
"2091","DISCESA COROGLIO - NISIDA","40.8005976890758","14.176644172352","0","",""
"2093","DIOCLEZIANO - CAVALLEGGERI","40.8207354776665","14.1873935526529","0","",""
"2094","CAVALLEGGERI","40.817066880907","14.1877199361202","0","",""
"2095","CAVALLEGGERI","40.8151138464035","14.1879720069577","0","",""
"2096","CAVALLEGGERI - M2","40.8191626778658","14.1872734183854","0","",""
"2097","CAVALLEGGERI - CAMPEGNA","40.8154070303231","14.1880306818537","0","",""
"2098","CAVALLEGGERI","40.8165187550823","14.1879163392413","0","",""
"2099","CAVALLEGGERI","40.8181079010189","14.1877991336353","0","",""
"2100","GIULIO CESARE - TECCHIO","40.8233933128849","14.1951581046068","0","",""
"2101","GIULIO CESARE","40.8244342417355","14.1984600356173","0","",""
"2102","GIULIO CESARE - M2","40.8248548439223","14.2006547802235","0","",""
"2103","GIULIO CESARE - SAN VITALE","40.8250820692986","14.2028993036578","0","",""
"2108","RIVIERA DI CHIAIA - CONSOLATO AMERICANO","40.8317632744372","14.2242681817484","0","",""
"2109","NUOVA  AGNANO","40.8233039115405","14.1723991203084","0","",""
"2114","RIVIERA DI CHIAIA - CALABRITTO","40.8329920890374","14.2403897574947","0","",""
"2115","CHIATAMONE","40.8309904122706","14.2448191315046","0","",""
"2116","RIVIERA DI CHIAIA","40.8334285467958","14.2369096930103","0","",""
"2124","RIVIERA DI CHIAIA","40.8334610448845","14.2299908797963","0","",""
"2125","SERVIO TULLIO - QUINTILIANO","40.8431366113748","14.1986202697426","0","",""
"2127","RIVIERA DI CHIAIA - CONSOLATO AMERICANO","40.8317663027946","14.2240487355456","0","",""
"2128","CHIATAMONE - CASTEL DELL'OVO","40.8303939501945","14.2457693708243","0","",""
"2129","CHIATAMONE ","40.8313596186318","14.2442972777602","0","",""
"2130","CERBONE - LICEO","40.8200588430635","14.169540783053","0","",""
"2131","CERBONE - ACATE","40.8179663462393","14.1691844738965","0","",""
"2132","CERBONE - ILIONEO","40.8184727306879","14.1694508817854","0","",""
"2133","COLONNA - AMEDEO","40.8367668956198","14.2356645609765","0","",""
"2134","CINTIA -PARCO SAN PAOLO","40.8355023736258","14.1909197292527","0","",""
"2135","CINTIA - TANGENZIALE","40.8357921650604","14.1904951492137","0","",""
"2136","CINTIA - PARCO SAN PAOLO","40.8336065774048","14.190984288616","0","",""
"2137","BRUNO - SANNAZARO","40.8299150855031","14.2202544114426","0","",""
"2138","MERGELLINA - LEONE","40.8279712641352","14.2196664657256","0","",""
"2140","MERGELLINA - FUNCOLARE","40.8260748603362","14.2196442246363","0","",""
"2141","MERGELLINA","40.8259868892282","14.2199565550747","0","",""
"2142","MERGELLINA - SANNAZZARO","40.8281664115109","14.2198835770261","0","",""
"2144","MORELLI","40.8324362688617","14.2435420128857","0","",""
"2146","TASSO - MANZONI","40.8368840720199","14.214221561883","0","",""
"2147","TASSO","40.8355692241124","14.2149368703069","0","",""
"2148","TASSO ","40.8370467250709","14.2156192375902","0","",""
"2149","TASSO - M.T DI CALCUTTA","40.8374698367981","14.216904140643","0","",""
"2150","TASSO - FALCONE","40.8378978752472","14.2189184622553","0","",""
"2151","TASSO - M.C. DI SAVOIA","40.8383200885927","14.220075905251","0","",""
"2152","TASSO","40.838410850381","14.2215100504991","0","",""
"2153","TECCHIO - MOSTRA","40.8250873807524","14.1929733844248","0","",""
"2154","MONTAGNA SPACCATA","40.8551787339432","14.1603525140965","0","",""
"2155","CONSALVO - C.DUILIO","40.828309196064","14.2077882513004","0","",""
"2156","CONSALVO","40.8311202986171","14.2072062709504","0","",""
"2157","CONSALVO","40.8329165500469","14.2057646095123","0","",""
"2158","CONSALVO - BIXIO","40.8344069781352","14.2037394307058","0","",""
"2159","CONSALVO","40.8336182600792","14.2043211303541","0","",""
"2160","CONSALVO","40.8321497486514","14.2062600247355","0","",""
"2161","CONSALVO","40.8306710603044","14.2073776598185","0","",""
"2162","CONSALVO - C.DUILIO","40.8287091785909","14.2076589661352","0","",""
"2163","MANZONI","40.8227733881077","14.2097307247294","0","",""
"2164","COROGLIO","40.8084284378769","14.172302110775","0","",""
"2166","COROGLIO","40.8061110502675","14.1735291796303","0","",""
"2167","COROGLIO - CITTÀ DELLA SCIEZA","40.8044629819754","14.1742224061457","0","",""
"2168","COROGLIO","40.8030507426494","14.1747644984387","0","",""
"2171","COROGLIO","40.805959641244","14.1737711305577","0","",""
"2172","COROGLIO","40.8082225267537","14.1727170421027","0","",""
"2173","VIA DI POZZUOLI","40.8143921899621","14.1651147100095","0","",""
"2174","LEGIONI","40.8267877519783","14.2066174778231","0","",""
"2175","DISCESA COROGLIO - DENZA","40.8022265501587","14.1878505106904","0","",""
"2176","DISCESA COROGLIO - MARECHIARO","40.8013554340408","14.1895148484344","0","",""
"2177","DISCESA COROGLIO - MARECHIARO","40.8015260578108","14.1894386813247","0","",""
"2178","DISCESA COROGLIO-ISTITUTO DENZA","40.8025717357471","14.187618097347","0","",""
"2183","COLONNA","40.8367137770066","14.2344464599989","0","",""
"2185","D'ANNUNZIO - CIMITERO","40.8314464506002","14.1912507108241","0","",""
"2186","CINTIA-MONTE SANT'ANGELO","40.8404642226065","14.1874699474253","0","",""
"2188","DIOCLEZIANO","40.8225052325139","14.1924710576976","0","",""
"2189","DIOCLEZIANO","40.8224930702283","14.1920205866539","0","",""
"2190","DIOCLEZIANO - ESEDRA","40.8176072811924","14.1775336728449","0","",""
"2191","EPOMEO","40.8444722859055","14.2061397095609","0","",""
"2192","EPOMEO - DELLA VALLE  ","40.8448677238958","14.2040442468013","0","",""
"2193","EPOMEO - MONTEVERGINE","40.8452243330757","14.2022013018826","0","",""
"2194","EPOMEO ","40.8455757715663","14.200266465063","0","",""
"2195","EPOMEO ","40.8459971558962","14.1980312349475","0","",""
"2196","EPOMEO","40.8463229684468","14.196307225249","0","",""
"2197","EPOMEO - BOTTAZZI","40.8468332941005","14.1939196178932","0","",""
"2198","EPOMEO - MONTAGNA SPACCATA","40.8475022198787","14.1916753662145","0","",""
"2199","EPOMEO - MUNICIPIO","40.8473060696598","14.1919654228392","0","",""
"2200","EPOMEO - CIRCUMFLEGREA SOCCAVO","40.8452199015043","14.2015607833631","0","",""
"2201","EPOMEO","40.8459371223629","14.197818432529","0","",""
"2202","EPOMEO","40.8455418393358","14.1999198950153","0","",""
"2203","EPOMEO","40.8462448960079","14.1960916757055","0","",""
"2204","EPOMEO - CIRCUMFLEGREA TRAIANO","40.8466191852107","14.1942187795265","0","",""
"2205","EPOMEO - VILLA CINZIA","40.8448337211485","14.203685816937","0","",""
"2206","EPOMEO - GIUSTINIANO","40.84423817515","14.2068097556243","0","",""
"2209","FUORIGROTTA - PIAZZA ITALIA","40.8261458682489","14.2062841805618","0","",""
"2210","MONTAGNA SPACCATA - POLO ARTIGIANALE","40.8541885099709","14.1634087498345","0","",""
"2211","GIUSTINIANO - CASSIODORO","40.8356719838077","14.2010378378136","0","",""
"2212","GIUSTINIANO ","40.8375257867866","14.2033670363201","0","",""
"2213","GIUSTINIANO - TRAIANO","40.8396403031231","14.2049726688999","0","",""
"2214","GIUSTINIANO - NERVA","40.8408717446909","14.205889095088","0","",""
"2215","GIUSTINIANO - CIRCUMFLEGREA PIAVE","40.8433690476426","14.2074903271813","0","",""
"2216","GIUSTINIANO - PIAVE","40.8431057092615","14.2071850504834","0","",""
"2217","GIUSTINIANO - PO","40.8402730391062","14.2052853705198","0","",""
"2219","CARDUCCI - MILLE ","40.8355106894685","14.2370384085066","0","",""
"2221","AGNANO ASTRONI - IPPODROMO","40.8327759976475","14.16295092126","0","",""
"2222","AGNANO ASTRONI - SCARFOGLIO","40.8306684437111","14.1648690694425","0","",""
"2223","AGNANO ASTRONI - IPPODROMO","40.8335607091389","14.1624666379022","0","",""
"2224","CARDUCCI ","40.8359910830245","14.2368595525643","0","",""
"2227","KENNEDY - ITIS RIGHI","40.8195455693994","14.1802755751518","0","",""
"2228","KENNEDY","40.8193204478288","14.1771241685801","0","",""
"2231","KENNEDY","40.8195034504655","14.1762592488223","0","",""
"2232","KENNEDY - ITIS RIGHI","40.8190027406319","14.178681460811","0","",""
"2233","KENNEDY","40.8195113291505","14.1805279759329","0","",""
"2237","ADIGE - GALILEI","40.8424594192042","14.2115779604603","0","",""
"2239","LEOPARDI -DIREZIONE A.N.M.","40.8295160769065","14.1973285101786","0","",""
"2241","LEOPARDI - CARITEO","40.8291105502845","14.198602373872","0","",""
"2242","LEOPARDI - CUMANA","40.8282593102676","14.2012068692493","0","",""
"2243","LEOPARDI - CUMANA","40.8285395170313","14.2006935496783","0","",""
"2244","LEOPARDI - CARITEO","40.8293550034923","14.1981309761359","0","",""
"2245","LEOPARDI - DIREZIONE  ANM","40.8300471372675","14.195973061532","0","",""
"2246","LEOPARDI - RIONE LAURO","40.8307436303592","14.1938002244718","0","",""
"2247","LEOPARDI - D'AANNUNZIO","40.8312372278147","14.1922465232099","0","",""
"2248","LIBERAZIONE","40.8207127408151","14.1715307096888","0","",""
"2249","LIBERAZIONE","40.8208752276234","14.1709506061817","0","",""
"2250","CASSIODORO - GIUSTINIANO","40.8351657566301","14.2001336110242","0","",""
"2251","MANZONI - PETRARCA","40.8078261741685","14.1937634790062","0","",""
"2252","MANZONI - TORRE RANIERI","40.8093627679819","14.1964421306912","0","",""
"2253","MANZONI","40.810712107943","14.1981094446429","0","",""
"2254","BOCCACCIO - PASCOLI","40.8028657343988","14.1884324996396","0","",""
"2255","MANZONI - OSPEDALE FATEBENEFRATELLI","40.8132867653949","14.1991574091312","0","",""
"2256","MANZONI - OSPEDALE FATEBENEFRATELLI","40.8149690860679","14.2001331706063","0","",""
"2257","MANZONI ","40.8177388735406","14.2020445373588","0","",""
"2258","MANZONI - POSTE","40.8192044610001","14.2039906261155","0","",""
"2259","MANZONI - MONTESSORI","40.820856392634","14.2060537516795","0","",""
"2260","MANZONI - PORTA POSILLIPO","40.8218272899165","14.2083841825261","0","",""
"2261","MANZONI - BELVEDERE IANNELLO","40.8239618448276","14.2109528818596","0","",""
"2262","MANZONI - FUNICOLARE MERGELLINA","40.8259551831761","14.2126369525531","0","",""
"2263","MANZONI ","40.827595132974","14.2127005700715","0","",""
"2264","MANZONI","40.8293904363334","14.213088492258","0","",""
"2265","MANZONI  ","40.8308484534027","14.2128933562626","0","",""
"2266","MANZONI ","40.8330520640908","14.2117316740484","0","",""
"2267","MANZONI - CARAVAGGIO","40.8344270838797","14.21125579234","0","",""
"2268","RUGGIERO - CAVONE DEGLI SBIRRI","40.8368961313767","14.1752967435825","0","",""
"2269","MONTAGNA SPACCATA - VILLAGGIO CARITAS","40.8533047531877","14.1662778533529","0","",""
"2270","PARCO MARGHERITA - VTTORIO EMANUELE","40.8384844022242","14.2338419225331","0","",""
"2271","PARCO MARGHERITA ","40.8382485068994","14.2363058395127","0","",""
"2272","PARCO MARGHERITA","40.8375403868819","14.2361597724292","0","",""
"2273","PARCO MARGHERITA - AMEDEO","40.8378385316587","14.2349316877127","0","",""
"2274","PARCO MARGHERITA","40.8374481424339","14.2365136980342","0","",""
"2275","PARCO MARGHERITA ","40.8383939636229","14.2365058110913","0","",""
"2276","MARINO - STADIO MARADONA","40.82830334785","14.1958755309909","0","",""
"2279","MARCO AURELIO 232","40.8372105496325","14.1910768753425","0","",""
"2280","MARCO AURELIO - ANCO MARZIO","40.8390353268812","14.1892369426614","0","",""
"2281","MARCO AURELIO - CHIESA","40.8410336196032","14.18965740574","0","",""
"2282","MARCO AURELIO - TRAIANO","40.840526598045","14.1925044332982","0","",""
"2283","RUGGIERO - IMMACOLATA","40.8372415060594","14.1694449887331","0","",""
"2285","DIOCLEZIANO","40.818977599586","14.1821749899446","0","",""
"2287","MARCO AURELIO - LATTANZIO","40.8405791278887","14.1922873214531","0","",""
"2288","GIGANTE - QUARANTA","40.8337963111497","14.1942821377661","0","",""
"2290","MARINO - DIREZIONE ANM","40.8293414280037","14.1961802345745","0","",""
"2292","ADRIANO 98","40.8425308675398","14.198953769994","0","",""
"2295","CINTIA - MONTE SANT' ANGELO","40.8395022550092","14.18774264581","0","",""
"2297","ADRIANO - POSTE","40.8423802935614","14.1999727435127","0","",""
"2299","MARINO - STADIO MARADONA","40.8260526974906","14.1944025607926","0","",""
"2300","MANZONI - LARGO EUROPA","40.8355590997593","14.2127901992904","0","",""
"2301","MANZONI - CARAVAGGIO","40.8346602268857","14.2110988418467","0","",""
"2302","MANZONI  ","40.8327146036243","14.2117831118306","0","",""
"2303","MANZONI - ORTENSIO","40.8304827152653","14.2127612935146","0","",""
"2304","MANZONI","40.8290148816742","14.2128379517338","0","",""
"2305","MANZONI - STAZIO","40.8276662832814","14.2125663112693","0","",""
"2306","MANZONI - FUNICOLARE MERGELLINA","40.825727524244","14.2122779466875","0","",""
"2307","MANZONI ","40.8238973316445","14.2107401909342","0","",""
"2308","MANZONI - SUORE DEL CENACOLO","40.8216390774339","14.2072124547962","0","",""
"2309","MANZONI - PORTA POSILLIPO","40.8205504343452","14.2054467108168","0","",""
"2310","MANZONI - POSTE","40.8190462899093","14.2035229491413","0","",""
"2311","MANZONI - POSTE","40.8175695673295","14.2016611971151","0","",""
"2312","MANZONI - OSPEDALE FATEBENEFRATELLI","40.8148135317059","14.1997852568872","0","",""
"2313","MANZONI - OSPEDALE FATEBENEFRATELLI","40.8132406575163","14.1990038259706","0","",""
"2314","MANZONI - PADULA","40.8069289777037","14.1917084975664","0","",""
"2315","MANZONI  ","40.8106704819049","14.1979528500834","0","",""
"2316","MANZONI TORRE RANIERI","40.8090555823362","14.1956663050515","0","",""
"2317","MANZONI-PETRARCA","40.8076657241566","14.1933623257227","0","",""
"2318","MANZONI  257","40.8054881049017","14.1872861502936","0","",""
"2319","MANZONI-PARCO VIRGILIANO","40.8038346014834","14.1865801993525","0","",""
"2321","DIOCLEZIANO-PIAZZA ESEDRA","40.8173130569068","14.1773298014554","0","",""
"2323","MONTE DI DIO","40.8335724962483","14.2456479549361","0","",""
"2324","EGIZIACA A PIZZOFALCONE","40.8338897678384","14.2467782164251","0","",""
"2326","MONTAGNA SPACCATA-CAMPANILE","40.8502652413978","14.1754097862983","0","",""
"2327","MONTAGNA SPACCATA-VIGILI DEL FUOCO","40.8536388713032","14.1664503192886","0","",""
"2328","MONTAGNA SPACCATA-CINTIA","40.8472380705777","14.1853291469031","0","",""
"2329","MANZONI ","40.8161432366485","14.2005755719822","0","",""
"2330","MONTAGNA SPACCATA ","40.8521040989314","14.1699208093365","0","",""
"2331","MONTAGNA SPACCATA - VILLAGGIO ITALSIDER","40.8513452917031","14.1721339282046","0","",""
"2332","PETRARCA - TORRE RANIERI","40.8073674231109","14.195796354541","0","",""
"2333","PETRARCA","40.8072817741377","14.1938500938432","0","",""
"2334","PETRARCA - MANZONI","40.8071449413334","14.1936057450241","0","",""
"2335","PETRARCA - TORRE RANIERI","40.8072608604046","14.1960169709787","0","",""
"2336","PETRARCA  ","40.8083967082639","14.1987212209847","0","",""
"2337","PETRARCA - VILLA RUFFO","40.8096807455807","14.1994201047601","0","",""
"2338","PETRARCA - VILLA VITTORIA","40.8115103459697","14.2021517692876","0","",""
"2339","PETRARCA  ","40.8128703299176","14.2040681152544","0","",""
"2340","PETRARCA  ","40.8141138307271","14.2054256896024","0","",""
"2341","PETRARCA - TITO LIVIO","40.8151295777508","14.206415493457","0","",""
"2342","PETRARCA - FACOLTÀ TEOLOGIA","40.8165140123414","14.2087528827641","0","",""
"2344","PETRARCA ","40.8204911160646","14.2112430325346","0","",""
"2345","PETRARCA - PARCO CARELLI","40.8213045271265","14.2122917389539","0","",""
"2346","PETRARCA","40.8221162943959","14.2137614608454","0","",""
"2347","PETRARCA - ORAZIO","40.8238392395577","14.2167561707909","0","",""
"2348","PIAVE - ARNO","40.8410226759754","14.2095021443688","0","",""
"2349","PIAVE","40.8399410963232","14.2120503901446","0","",""
"2350","PIAVE - SANGRO","40.8393132384577","14.2124492511839","0","",""
"2351","PIAVE - SANTO STEFANO","40.8384858064638","14.2139654222973","0","",""
"2352","PIAVE - SANTO STEFANO","40.838479747731","14.2143984291852","0","",""
"2353","PIAVE - SANGRO","40.8395933728289","14.2119181014192","0","",""
"2354","PIAVE ","40.8403638297675","14.2112951392283","0","",""
"2355","PIAVE - GIUSTINIANO","40.8416543848964","14.2083529400833","0","",""
"2356","PIEDIGROTTA - CHIESA","40.8306788094602","14.2195997376053","0","",""
"2358","ANTONINO PIO","40.8404008734756","14.2003197727065","0","",""
"2359","PIGNA - RISORGIMENTO","40.8454762781199","14.208698922423","0","",""
"2360","PIGNA - PARCO CORREALE","40.8486044717947","14.2162955798094","0","",""
"2361","PIGNA ","40.8483882048209","14.2142992108721","0","",""
"2363","PIGNA - CAMANDOLILLI","40.8505489987999","14.2207629632804","0","",""
"2364","PIGNA - OMODEO","40.8492855742904","14.2190961603294","0","",""
"2365","PIGNA","40.8457956163955","14.209946622246","0","",""
"2366","PIGNA ","40.8452438588593","14.2083042951276","0","",""
"2367","PIGNA LICEO ALBERTI","40.8496667916392","14.2201860684565","0","",""
"2368","PIGNA - LICEO PANSINI","40.8494135098683","14.2167071907395","0","",""
"2369","PIGNA ","40.8506858951815","14.2210253205477","0","",""
"2370","PIGNA - PARCO PIGNA","40.848752809411","14.2142652464128","0","",""
"2371","PIGNA ","40.8458710472404","14.2104380225474","0","",""
"2372","CESARIO CONSOLE - PLEBISCITO","40.8336724898265","14.251456637794","0","",""
"2373","VITTORIO EMANUELE II - M2 MERGELLINA","40.8313714969381","14.2196058467691","0","",""
"2374","DISCESA COROGLIO - PONTE","40.8035172256965","14.1862847355487","0","",""
"2375","CESARIO CONSOLE - ORSINI","40.8334992267005","14.2516209550183","0","",""
"2376","PIGNA - OMODEO","40.8491530568681","14.2188159663817","0","",""
"2377","EUROPA - SACRO CUORE","40.8369303191941","14.2132775914775","0","",""
"2380","O.COCLITE","40.8413245949658","14.188761266006","0","",""
"2381","O.COCLITE","40.8411397113188","14.1887309005942","0","",""
"2382","ORAZIO","40.82412920522","14.2189999802566","0","",""
"2383","ORAZIO  ","40.8260700857431","14.2189386682072","0","",""
"2385","ORAZIO","40.8259748835662","14.2188478778511","0","",""
"2386","ORAZIO","40.8239693084928","14.2180027641699","0","",""
"2387","PADULA - MONTAGNA SPACCATA","40.8495562814775","14.180211308927","0","",""
"2388","PADULA - RIGOLETTO","40.851603531796","14.1805449479392","0","",""
"2389","PADULA - ISITUTO PALASCIANO","40.8546666255914","14.1805843213965","0","",""
"2390","PADULA _ PICCOLA LURDES","40.8583044521591","14.1810051848984","0","",""
"2391","PADULA - CINZIA","40.8460051567524","14.1884764277541","0","",""
"2392","AGNANO ASTRONI - IPPODROMO","40.8343362651062","14.1617144114075","0","",""
"2395","PORCELLI - CASSIODORO","40.8348240146007","14.1982696766288","0","",""
"2396","LABRIOLA","40.8210552224936","14.1802986228638","0","",""
"2397","POSILLIPO","40.8033056862216","14.1991825595762","0","",""
"2398","POSILLIPO - DI GIACOMO","40.8039381607076","14.2020557421574","0","",""
"2399","POSILLIPO","40.8059683953486","14.2038453073045","0","",""
"2400","POSILLIPO","40.8076378705113","14.204269944432","0","",""
"2401","POSILLIPO - ROCCA BELVEDERE","40.8102273457112","14.2048614602236","0","",""
"2403","POSILLIPO","40.8128470248165","14.207225232419","0","",""
"2404","POSILLIPO - S.LUIGI","40.8139847528154","14.2076148228681","0","",""
"2405","POSILLIPO","40.8148397131397","14.2094632392497","0","",""
"2406","POSILLIPO","40.816780795254","14.2107474715698","0","",""
"2407","POSILLIPO","40.8179684316791","14.2118509724557","0","",""
"2408","POSILLIPO","40.8190753328989","14.2130058622857","0","",""
"2409","POSILLIPO - PALAZZO DONN'ANNA","40.8199823387052","14.2139111681621","0","",""
"2410","POSILLIPO","40.8222044118298","14.2161202301903","0","",""
"2411","POSILLIPO ","40.8218012042517","14.215114059911","0","",""
"2412","POSILLIPO - PALAZZO DONN'ANNA","40.8201898061184","14.2138114833295","0","",""
"2413","POSILLIPO","40.818972304819","14.2124290139648","0","",""
"2414","POSILLIPO - VILLA DE MARTINO","40.8179722064644","14.2117442095006","0","",""
"2415","POSILLIPO","40.8164756326533","14.2102530809869","0","",""
"2416","POSILLIPO","40.8151014822197","14.209540167102","0","",""
"2417","POSILLIPO - S.LUIGI","40.8141105132778","14.2075629347441","0","",""
"2418","POSILLIPO - OSPEDALE PAUSILLIPON","40.8122030837033","14.2065926433453","0","",""
"2419","POSILLIPO - ROCCA BELVEDERE","40.8099724358189","14.2044732500382","0","",""
"2420","POSILLIPO ","40.8077455530466","14.2042093792823","0","",""
"2421","POSILLIPO","40.8056690782659","14.2035495358487","0","",""
"2422","POSILLIPO CAPO - ATTESTAMENTO","40.8042527845461","14.1856052369237","0","",""
"2423","POSILLIPO - DI GIACOMO","40.803859300073","14.201724744749","0","",""
"2424","POSILLIPO - ISTITUTO CIMAROSA","40.8035392052118","14.1990819487795","0","",""
"2425","POSILLIPO - RIONE PRIMAVERA","40.8031912784689","14.1969789142741","0","",""
"2426","QUARANTA - PETRUCCELLI","40.8335864866552","14.1964877401688","0","",""
"2427","NISIDA - LIDO POLA","40.7995999311845","14.1749011998797","0","",""
"2428","NISIDA","40.7979144608039","14.170261101635","0","",""
"2429","RIGHI - PISCIARELLI","40.832533085066","14.1592773272327","0","",""
"2431","NISIDA - NISIDA MARE","40.7980782493443","14.1709225913038","0","",""
"2433","DISCESA COROGLIO - GROTTA DI SEIANO","40.8000576776996","14.1760818350298","0","",""
"2434","DISCESA COROGLIO - GROTTA DI SEIANO","40.7998915456388","14.1761550154452","0","",""
"2435","NISIDA - MARINA MILITARE","40.7964637754378","14.1671980106145","0","",""
"2436","AGNANO ASTRONI ","40.8293049225721","14.1662856085959","0","",""
"2437","AGNANO ASTRONI ","40.8292101724931","14.1662630762513","0","",""
"2440","PROVINCIALE DI NAPOLI - CARLO I","40.859797188217","14.1711773863157","0","",""
"2441","PROVINCIALE DI NAPOLI - CATENA","40.8583326072957","14.1704481621937","0","",""
"2442","PICASSO","40.8559684354146","14.1680158044734","0","",""
"2448","TASSO ","40.8380946689235","14.2240520414033","0","",""
"2449","TASSO ","40.8373911729359","14.225937256325","0","",""
"2450","TASSO ","40.8370938193506","14.2272691472378","0","",""
"2451","TASSO ","40.8367118691038","14.2287502686065","0","",""
"2452","TASSO - OSPEDALE INTERNAZIONALE","40.8374490838872","14.2271849595441","0","",""
"2453","TASSO - CHIESA","40.8376464216886","14.2250447047854","0","",""
"2454","TASSO - TEATRO","40.8384599505582","14.2234487890282","0","",""
"2455","TASSO - MARIA CRISTINA DI SAVOIA","40.8386906665016","14.2209255739403","0","",""
"2456","TASSO - CHIESA ","40.8385443563423","14.2199368721473","0","",""
"2457","TASSO - MADRE TERESA DI CALCUTTA","40.8373649813146","14.216718563175","0","",""
"2458","TASSO - GRADINI TASSO","40.8367939335959","14.2148749780375","0","",""
"2459","TASSO - CLINICA TASSO","40.8356308041237","14.2147196854441","0","",""
"2460","TASSO - MANZONI","40.8367595610209","14.214457285623","0","",""
"2461","AGNANO ASTRONI -TERME","40.8274912757112","14.1682520314237","0","",""
"2462","AGNANO ASTRONI -TERME","40.8272011347442","14.168734202162","0","",""
"2463","ADRIANO - ISTITUTO MAROTTA","40.8429452575283","14.1931073861645","0","",""
"2468","TERRACINA","40.8286437067577","14.185962824967","0","",""
"2469","TERRACINA","40.8285143160428","14.1854989238181","0","",""
"2471","TERRACINA","40.8243932427535","14.1785438088293","0","",""
"2472","TERRACINA","40.8257566885642","14.1808928467834","0","",""
"2473","TERRACINA - OSPEDALE SAN PAOLO","40.8270382217244","14.1831303234699","0","",""
"2474","TERRACINA - MARCONI","40.8295282639891","14.1874878296039","0","",""
"2475","TERRACINA - CIMITERO","40.8307502471365","14.1896017559244","0","",""
"2477","TERRACINA - MARCONI","40.8295267395504","14.1872714098862","0","",""
"2478","TERRACINA - CIMITERO","40.8309587117206","14.1897830459881","0","",""
"2480","TERRACINA - OSPEDALE SAN PAOLO","40.8267541582648","14.1824519088626","0","",""
"2481","TERRACINA","40.8254953415747","14.1802438222909","0","",""
"2482","TERRACINA - BARBAGALLO","40.824350639966","14.1782537961638","0","",""
"2483","TERRACINA - NUOVA AGNANO","40.8222573861391","14.1745074968077","0","",""
"2485","TERTULLIANO - LOGGETTA","40.8373455982466","14.1951874528855","0","",""
"2486","TERTULLIANO - TESTI","40.8372855713704","14.1953637219976","0","",""
"2487","TERTULLIANO - ROMOLO E REMO","40.8393757373651","14.1966906451909","0","",""
"2488","TESTI - TERTULLIANO","40.835126279443","14.1970443895391","0","",""
"2489","TESTI - PORCELLI","40.8347404633505","14.1953262972833","0","",""
"2490","TRAIANO - ADRIANO","40.8425130835472","14.1912407494079","0","",""
"2491","TRAIANO - CASSIODORO","40.8397167317659","14.2029938575932","0","",""
"2492","TRAIANO - GIOVANNI XXIII","40.8396238995332","14.1993446113902","0","",""
"2493","TRAIANO - LIVIO ANDRONICO","40.8426748032691","14.191179473596","0","",""
"2494","TRAIANO - TARQUINO PRISCO","40.8430196774819","14.1889778377763","0","",""
"2496","TRAIANO - CASSIODORO","40.839286355434","14.2013324888155","0","",""
"2498","TRAIANO - TARQUINO PRISCO","40.8428710325023","14.1889766843201","0","",""
"2499","SANTA LUCIA - ORSINI","40.8330192095162","14.2493498900308","0","",""
"2500","SANTA LUCIA - REGIONE CAMPANIA","40.8312430778959","14.2487057639078","0","",""
"2501","SANTA LUCIA - REGIONE CAMAPANIA","40.8311470112793","14.248893642486","0","",""
"2502","SANTA LUCIA - PLEBISCITO","40.8331710374239","14.2498403804192","0","",""
"2503","SAN PASQUALE - POERIO","40.8338800906518","14.2361891333917","0","",""
"2504","S.STRATO-RICCIARDI","40.8022357085474","14.1942964334128","0","",""
"2505","S.STRATO - BOCCACCIO","40.8016903371233","14.1923114423322","0","",""
"2506","S.STRATO - BOCCACCIO","40.8016058020903","14.1924606504201","0","",""
"2507","S.STRATO - RICCIARDI","40.8021092089707","14.1942416530897","0","",""
"2514","DIOCLEZIANO-AOSTA","40.8202525297463","14.1859735245019","0","",""
"2516","CARACCIOLO-SEA GARDEN","40.8235853564241","14.2198364614812","0","",""
"2517","LARGO SERMONETA","40.8234454161909","14.218459543275","0","",""
"2519","VITTORIA - VILLA COMUNALE","40.8325091080378","14.2416438772655","0","",""
"2520","VITTORIO EMANUELE - MERCADANTE","40.8362275020617","14.2223510261941","0","",""
"2521","BOCCACCIO-S.STRATO","40.8028195290634","14.1882670941827","0","",""
"2522","VITTORIO EMANUELE II - PONTANO","40.8364254322667","14.2249907240268","0","",""
"2523","VITTORIO EMANUELE II - TASSO","40.8363491057689","14.2283867860979","0","",""
"2524","VITTORIO EMANUELE II - PARCO MARGHERITA","40.8371734220156","14.2310934001464","0","",""
"2525","VITTORIO EMANUELE II - FUNICOLARE CHIAIA","40.838646441053","14.2338252301791","0","",""
"2526","TORRICELLI","40.8615488202679","14.1723658149696","0","",""
"2527","VITTORIO EMANUELE II","40.8398413235912","14.2374173651782","0","",""
"2528","VITTORIO EMANUELE II","40.8395816998839","14.2397096001762","0","",""
"2529","VITTORIO EMANUELE II - STAZIONE CARABINIERI","40.8329300804429","14.22029325647","0","",""
"2530","VITTORIO EMANUELE II - CARIATI","40.8400570761037","14.2433336664663","0","",""
"2531","VITTORIO EMANUELE II","40.841662036485","14.244007787249","0","",""
"2532","VITTORIO EMANUELE II - CHIESA","40.8432856790708","14.2447472214741","0","",""
"2533","VITTORIO EMANUELE II ","40.8445605493915","14.2440892165574","0","",""
"2535","VITTORIO EMANUELE II ","40.8493402173803","14.2414605882205","0","",""
"2536","VITTORIO EMANUELE II - MAZZINI","40.8505785423484","14.2420984651757","0","",""
"2537","VITTORIO EMANUELE II - MAZZINI","40.850984400307","14.2421714412677","0","",""
"2538","VITTORIO EMANUELE II","40.8496014970426","14.2414665059767","0","",""
"2539","VITTORIO EMANUELE II - FUNICOLARE DI MONTESANTO","40.8464867627791","14.2420667924063","0","",""
"2540","VITTORIO EMANUELE II","40.8449156126809","14.2439724892585","0","",""
"2541","VITTORIO EMANUELE II - CHIESA","40.8429840657239","14.244498088591","0","",""
"2542","VITTORIO EMANUELE II","40.8414124926818","14.2438682813865","0","",""
"2543","VITTORIO EMANULE II - FUNICOLARE CENTRALE","40.839752848223","14.2425847513477","0","",""
"2544","VITTORIO EMANUELE II - CHIESA","40.8397235989316","14.2386878920407","0","",""
"2545","VITTORIO EMANUELE II","40.8396593477224","14.2371436718194","0","",""
"2546","VITTORIO EMANUELE II - FUNICOLARE CHIAIA","40.8388046754824","14.2344574997987","0","",""
"2547","VITTORIO EMANUELE II - PARCO GRIFEO","40.837867478807","14.2325087169568","0","",""
"2548","VITTORIO EMANUELE II - TASSO","40.8373725745956","14.2305632821613","0","",""
"2549","VITTORIO EMANUELE II","40.8364404519449","14.225886045742","0","",""
"2550","VITTORIO EMANUELE II","40.8368464849779","14.2241076210105","0","",""
"2551","VITTORIO EMANUELE II - PARCO COMOLA RICCI","40.8347239208792","14.219136589728","0","",""
"2552","VITTORIO EMANULE II -PRESIDIO SANITARIO","40.834097913535","14.2204124114619","0","",""
"2553","VITVITTORIO EMANUELE II - STAZIONE CARABINIERI","40.8329957134629","14.220007841148","0","",""
"2554","VITTORIO EMANUELE II - M2 MERGELLINA","40.832088363824","14.2197101121888","0","",""
"2555","VITTORIO EMANUELE II - CIRCUMFLEGREA","40.8363520164098","14.2213130358929","0","",""
"2556","GIORDANI ","40.8341139627998","14.2215217700606","0","",""
"2557","PIAZZA SALVEMINI","40.8168960735005","14.1694231174453","0","",""
"2558","PETRARCA  ","40.8239128248516","14.2163165351477","0","",""
"2559","PETRARCA ","40.8219339599623","14.2134434401518","0","",""
"2560","PETRARCA-VIA NEVIO","40.8211568826285","14.2117776560347","0","",""
"2561","PETRARCA  ","40.82018151254","14.2107575585175","0","",""
"2562","PETRARCA ","40.8176892803876","14.2088541776265","0","",""
"2564","PETRARCA-TITO LIVIO","40.8150915081825","14.2061195203427","0","",""
"2565","PETRARCA ","40.814003248563","14.2050653742165","0","",""
"2566","PETRARCA  81","40.8128365127584","14.2037365326842","0","",""
"2567","PETRARCA  65","40.8115671734661","14.2019021032731","0","",""
"2568","PETRARCA - VILLA RUFFO","40.8094431331802","14.1989309340994","0","",""
"2569","PETRARCA  ","40.8083365326132","14.1984877915192","0","",""
"2578","NUOVA AGNANO","40.8206053308389","14.1747692907248","0","",""
"2589","RUGGIERO ","40.8367458778974","14.1637514964668","0","",""
"2602","BRUNO - SANNAZARO","40.8301048400129","14.2207726620567","0","",""
"2603","TARQUINIO PRISCO-ANDRONICO","40.8441952008144","14.1889694382798","0","",""
"2604","DIOCLEZIANO","40.821218574999","14.1888373159122","0","",""
"2605","DIOCLEZIANO","40.8213671996863","14.1888355051826","0","",""
"2606","TRAIANO","40.8395982221697","14.2034430463643","0","",""
"2607","CORNELIA DEI GRACCHI","40.8415444382231","14.1989508193827","0","",""
"2608","QUARANTA-GIGANTE","40.833425738356","14.1941057541058","0","",""
"2609","NUOVA AGNANO","40.8235194194035","14.1722399083509","0","",""
"2610","MARINO - LEPANTO","40.826911201246","14.1951778331225","0","",""
"2611","PIGNA-CORREALE","40.8495805124395","14.21675860856","0","",""
"2612","LARGO GIUSTINIANO","40.8395297596447","14.204618146992","0","",""
"2613","BRUNO - TORRETTA","40.8310455800631","14.2227021421412","0","",""
"2614","MANZONI-SUORE DEL CENACOLO","40.8226838806281","14.209814796153","0","",""
"2619","DIOCLEZIANO - CAVALLEGGERI","40.8207783227531","14.187081755258","0","",""
"2620","DIOCLEZIANO - EDENLANDIA","40.8196562547046","14.1838167521917","0","",""
"2621","PIAZZA BAGNOLI","40.8142478305099","14.1675768272102","0","",""
"2622","NUOVA BAGNOLI-VILLA LE PALME","40.8160838612654","14.1729815247025","0","",""
"2623","NUOVA BAGNOLI-VILLA LE PALME","40.8159673582668","14.1730659720494","0","",""
"2624","NUOVA BAGNOLI-CUMANA NUOVA AGNANO","40.8166778784312","14.1747942490291","0","",""
"2625","NUOVA BAGNOLI-CARAFA","40.815241883713","14.1705138507969","0","",""
"2626","PIAZZETTA MONDRAGONE","40.8378286703434","14.2423094273771","0","",""
"2629","TECCHIO - POLITECNICO","40.8239679567531","14.1945360082923","0","",""
"2630","SERVIO TULLIO","40.8439611724028","14.1986637171778","0","",""
"2632","BAGNOLI ","40.8139379734893","14.1658347793125","0","",""
"2633","POSILLIPO-COSTA","40.8031930931893","14.197239701275","0","",""
"2634","PADULA 145","40.8565488527271","14.1805136701798","0","",""
"2635","TORRICELLI","40.8626691955474","14.1734612956418","0","",""
"2636","SAN GIORGIO","40.8631068766161","14.17735074341","0","",""
"2637","VASTO A CHIAIA","40.8366985390132","14.238342979734","0","",""
"2638","VICO VETRIERA","40.8370077905561","14.2394009707103","0","",""
"2639","RAMPE BRANCACCIO-GRADINI","40.8367322730902","14.2406524838659","0","",""
"2640","RAMPE BRANCACCIO 10","40.8370446174297","14.2408891048183","0","",""
"2641","RAMPE BRANCACCIO","40.8372219599749","14.2404600847252","0","",""
"2642","DIOCLEZIANO - POSTE","40.8183935728057","14.180426120002","0","",""
"2643","NICOTERA","40.8372884066138","14.2437181471893","0","",""
"2651","DIOCLEZIANO ","40.8186296216162","14.1806840838023","0","",""
"2655","DE GENNARO -  D'ANNUNZIO","40.829541018314","14.1937999663877","0","",""
"2656","BAGNOLI-CUMANA","40.8139333703581","14.1670679490979","0","",""
"2657","MONTAGNA SPACCATA-PADULA","40.8495218256605","14.1779013762195","0","",""
"2661","MONTAGNA SPACCATA - CINTIA","40.8470721800949","14.1856068572991","0","",""
"2667","AGNANO ASTRONI","40.8426813800784","14.1645286431818","0","",""
"2668","RIVIERA DI CHIAIA","40.8326745522148","14.2278393441832","0","",""
"2670","SIMIOLI-SUORE VOCAZIONISTE","40.8627564114925","14.1755782129905","0","",""
"2671","MONTAGNA SPACCATA","40.8521265929228","14.1704718445753","0","",""
"2672","MONTAGNA SPACCATA-VILLAGGIO ITALSIDER","40.851396854417","14.1724150451578","0","",""
"2673","MONTAGNA SPACCATA-CAMPANILE","40.8502816561824","14.1758159018406","0","",""
"2674","MONTAGNA SPACCATA-PADULA","40.8494137669635","14.1791720716665","0","",""
"2676","PROVINCIALE DI NAPOLI-VILLAGGIO CARITAS","40.8548643469451","14.1673118370042","0","",""
"2678","CINTIA-CAVONE DEGLI SBIRRI","40.8428507996973","14.1854657761557","0","",""
"2679","DIOCLEZIANO - OSSERVATORIO VESUVIANO","40.8196268458783","14.1841165238766","0","",""
"2706","MONTAGNA SPACCATA-POSTE","40.8479091425187","14.1906116562827","0","",""
"2708","CINTIA-TRAIANO","40.8429495211871","14.185668594339","0","",""
"2709","LABRIOLA","40.82158668254","14.1803779213979","0","",""
"2711","MARCO AURELIO-ANCO MARZIO","40.8411538046721","14.189454292918","0","",""
"2714","SAN CARLO - TRIESTE E TRENTO","40.8378146855876","14.2493603472091","0","",""
"2721","TECCHIO - M2","40.822782316409","14.1936185891205","0","",""
"2722","SAN DOMENICO","40.8435423475213","14.2110884229238","0","",""
"2723","SAN DOMENICO","40.844032740111","14.2090334073942","0","",""
"2724","SAN DOMENICO","40.8439963974711","14.2103030973828","0","",""
"2725","CAIO DUILIO-LINEA 6","40.8268229543922","14.20518802943","0","",""
"2727","SAN DOMENICO","40.842388778968","14.212068849807","0","",""
"2728","RIVIERA DI CHIAIA ","40.8333511851212","14.2355656178926","0","",""
"2731","TECCHIO - M2","40.8230665169082","14.1948003714281","0","",""
"2735","COMUNALE NAPOLI","40.8609010193508","14.1791205841168","0","",""
"2738","RUGGIERO","40.8346163764543","14.1619982883828","0","",""
"2749","SCARFOGLIO","40.8287990316489","14.1582737414214","0","",""
"2758","MODIGLIANI ","40.8566256954413","14.1637328171023","0","",""
"2760","ADRIANO","40.8432447633103","14.1953924801543","0","",""
"2761","CINTIA-PARCO SAN PAOLO","40.8373254585585","14.1894801705083","0","",""
"2763","RIVIERA DI CHIAIA","40.8334233103792","14.2323186121101","0","",""
"2766","AGNANO ASTRONI","40.83982554914","14.1621804215668","0","",""
"2767","NUOVA SARTANIA","40.8512029310955","14.1625603685301","0","",""
"2769","MONTAGNA SPACCATA 209","40.8487987930562","14.1807337225517","0","",""
"2771","PICASSO EX AREA MERCATALE","40.8561812487599","14.1609648798094","0","",""
"2773","PISCIARELLI - TRIBUNALE","40.8304167135921","14.1526240470703","0","",""
"2774","PISCIARELLI ","40.8316704537419","14.1557527894468","0","",""
"2775","SOLITARIA","40.8346748200261","14.2484208519728","0","",""
"2776","PIAZZA CAROLINA","40.8361760302221","14.2473922412442","0","",""
"2777","NICOTERA","40.8355559973227","14.2448113885507","0","",""
"2800","VITTORIA","40.8323038378569","14.2413065842279","0","",""
"2901","COROGLIO - ARENILE","40.8128997518481","14.1673921136223","0","",""
"2903","VITTORIO EMANUELE II - S.ANTONIO AI MONTI","40.8476440920755","14.2413453912597","0","",""
"2914","TRAIANO-PARCO PUBBLICO","40.8393627142969","14.1948226333047","0","",""
"2915","TRAIANO-PARCO PUBBLICO","40.8395901089148","14.1944907268573","0","",""
"2930","VITTORIO EMANUELE II -  FUNICOLARE MONTESANTO","40.8468032824644","14.2419788556545","0","",""
"2931","ANTINIANA-OSP.NATO","40.825549841793","14.1519726804631","0","",""
"2939","VIA DI POZZUOLI","40.8152860556712","14.1629099426713","0","",""
"2940","COROGLIO - ARENILE","40.8130949006626","14.1669717253094","0","",""
"2947","PARCO MARGHERITA-AMEDEO","40.8375128187984","14.2340399212309","0","",""
"2999","FONTANA","40.8555166466779","14.2307656698178","0","",""
"3001","D'AURIA-COTRONEI","40.8458025407917","14.2363911318966","0","",""
"3002","OSPEDALE CARDARELLI","40.8682129916468","14.2273612383874","0","",""
"3003","D'ANTONA - SEMMOLA","40.8612491863819","14.2231886092938","0","",""
"3004","D'ANTONA - CAVALLINO","40.8619575303197","14.2253754383193","0","",""
"3005","D'ACQUISTO","40.8553636105232","14.2375656616839","0","",""
"3007","MARANO PIANURA","40.8763933582482","14.1747325733067","0","",""
"3008","FERMI 14","40.9230381051996","14.1963245302243","0","",""
"3010","MARANO PIANURA","40.8756455149468","14.1853541007019","0","",""
"3011","PONTI ROSSI","40.8713419414212","14.2634148104189","0","",""
"3012","FONTANA","40.8560887525551","14.2287539702411","0","",""
"3013","FONTANA - MASSARI","40.8552066688667","14.230211636541","0","",""
"3014","FONTANA - PRESUTTI","40.8567564591732","14.2316174370741","0","",""
"3015","FONTANA","40.8569776961189","14.2310216532431","0","",""
"3016","FONTANA","40.8557597928458","14.2294043914231","0","",""
"3017","FONTANA ","40.8550427615591","14.2286000023923","0","",""
"3020","NICOLARDI","40.8746672079951","14.2422678449805","0","",""
"3023","DELL'EREMO 51","40.8623654134802","14.1909666686506","0","",""
"3024","IANNELLI ","40.8574399027224","14.2187008244297","0","",""
"3025","IANNELLI-CANGIANI","40.8630138341874","14.2177127715048","0","",""
"3026","IANNELLI 136","40.8539127710887","14.2193087691349","0","",""
"3027","IANNELLI-TANGENZIALE","40.8525813760567","14.2195794687291","0","",""
"3028","SECONDIGLIANO - ZIVIELLO","40.8864113697226","14.2675694313534","0","",""
"3029","IANNELLI 45","40.8524169920079","14.2192492132501","0","",""
"3030","IANNELLI 16","40.8517192228239","14.2206365485358","0","",""
"3031","IANNELLI-IMPERATRICE","40.8622765121029","14.2165853268236","0","",""
"3032","IANNELLI 452","40.8616402785292","14.2170793040978","0","",""
"3033","IANNELLI-SGAMBATI","40.8598038668827","14.2179314815713","0","",""
"3034","MAGELLANO","40.9219510827703","14.2050337224265","0","",""
"3035","TOGLIATTI","40.9229120785732","14.2027617870414","0","",""
"3036","IANNELLI 264","40.8581465938506","14.2173043450197","0","",""
"3037","IANNELLI-FRAGNITO ","40.8583683053994","14.2174530113275","0","",""
"3038","IANNELLI 136","40.8536746323991","14.2193946123151","0","",""
"3039","IANNELLI 45","40.8525356226142","14.218808861839","0","",""
"3040","IANNELLI - PARCO ALDEBARAN ","40.8517355546","14.2203872213837","0","",""
"3041","IANFOLLA ","40.8877814438639","14.2474078658558","0","",""
"3042","IANFOLLA ","40.8887008903291","14.2502670740517","0","",""
"3043","IANFOLLA ","40.8887813605605","14.2501741714282","0","",""
"3044","IANFOLLA ","40.8882207153596","14.2484622983234","0","",""
"3045","DE AMICIS 30","40.8693248324659","14.2224801321626","0","",""
"3046","DE AMICIS POLICLINICO","40.8709992107158","14.2219415320713","0","",""
"3047","DE AMICIS 64 FR.","40.8700880143523","14.2221062977918","0","",""
"3048","DE AMICIS 250 FR.","40.8743416798356","14.2217004796223","0","",""
"3049","DE AMICIS 250","40.8739052142181","14.2217649290816","0","",""
"3050","S.IGNAZIO DI LOYOLA 115","40.8632553670082","14.2082233335146","0","",""
"3051","NIUTTA - MUZII","40.8528987458301","14.2305571468454","0","",""
"3053","IANFOLLA ","40.8872528472088","14.2457817351873","0","",""
"3054","IANFOLLA ","40.887130992374","14.2450560850233","0","",""
"3055","IANFOLLA ","40.8848780300531","14.2380697614607","0","",""
"3056","IANFOLLA ","40.8864413617842","14.2429184536538","0","",""
"3057","GUERRA ","40.8740118712305","14.1869501402161","0","",""
"3058","MARTINI - CAPALDO","40.8507663334114","14.2229343916512","0","",""
"3059","MARTINI-MARIO","40.8511842470566","14.22279011277","0","",""
"3060","MARTINI-ARENELLA","40.850088343712","14.2259318682558","0","",""
"3061","MARTINI-SCALA","40.8502771653528","14.2238684137198","0","",""
"3062","RIONE 25/80 DI CHIAIANO","40.886818165048","14.2144344372381","0","",""
"3063","VITTORIO VENETO 3 B","40.8863547540779","14.2489611689622","0","",""
"3064","MENZINGER  -MEDAGLIE D'ORO","40.8507356861808","14.2324848131456","0","",""
"3065","MENZINGER","40.8505802872089","14.2321455334292","0","",""
"3066","VIALE MICHELANGELO","40.847722150893","14.2335297112098","0","",""
"3067","BASILE","40.9236531837753","14.1998894593896","0","",""
"3068","MICHELANGELO-LEONARDO","40.8494610151993","14.2358775703694","0","",""
"3069","S.IGNAZIO DI LOYOLA-PARCO CAMALDOLI","40.8641823811839","14.1970257890519","0","",""
"3070","S.IGNAZIO DI LOYOLA-PARCO CAMALDOLI","40.8640103678304","14.1975499614341","0","",""
"3071","S.IGNAZIO DI LOYOLA 284","40.8642181188606","14.1956904519898","0","",""
"3072","SAN ROCCO 331","40.8964714393915","14.1608278111681","0","",""
"3073","IANNELLI-CANGIANI","40.8628593980136","14.2175217728503","0","",""
"3074","BIANCHI - EDICOLA","40.8682285310824","14.2122580561626","0","",""
"3076","RUGGIERI - OSPEDALE MONALDI","40.8684685474396","14.2124480438019","0","",""
"3077","MONTE ROSA - MONTE S. GABRIELE","40.9021980161072","14.2472385296745","0","",""
"3078","MONTE ROSA - LIBERTÀ","40.9002213748111","14.250798879994","0","",""
"3079","MONTE ROSA - MERCATINO RIONALE","40.898303278069","14.2536786918731","0","",""
"3080","MONTE ROSA ","40.8984014668952","14.2542355702142","0","",""
"3081","MONTE ROSA - DEL CERVINIO","40.8989885764433","14.252391774497","0","",""
"3082","ZANOTTI BIANCO ","40.884148835731","14.2602828181737","0","",""
"3083","MARTINI - ALTAMURA","40.8501531139064","14.224175341949","0","",""
"3084","MEDAGLIE D'ORO","40.85062180188","14.2302647030456","0","",""
"3085","MORGHEN 36","40.844412383023","14.2339189696503","0","",""
"3086","MORGHEN 56","40.8439499501405","14.2348228582753","0","",""
"3087","MORGHEN - FUNICOLARE MONTESANTO","40.8442633049643","14.2358898250468","0","",""
"3088","MORGHEN-FUNICOLARE MONTESANTO","40.8444016855128","14.2357014043092","0","",""
"3089","MORGHEN 137","40.8442297174312","14.2348997108174","0","",""
"3090","MORGHEN 53","40.8444024300679","14.2337767365945","0","",""
"3091","GOBETTI","40.8947612027442","14.2395765853393","0","",""
"3093","MIANO 129","40.8877094388353","14.2501833042968","0","",""
"3094","MIANO","40.8855568292395","14.248854461019","0","",""
"3095","MIANO 89","40.8818000048635","14.2494874189516","0","",""
"3096","MIANO A CAPODIMONTE","40.8792496804713","14.2486438893611","0","",""
"3097","MIANO","40.8768178033871","14.2486980906167","0","",""
"3098","CIMAROSA","40.8425024796259","14.2280991135068","0","",""
"3099","MIANO - MUSEO DI CAPODIMONTE E REAL BOSCO","40.8701922549647","14.2500872488536","0","",""
"3100","SECONDIGLIANO - ASPROMONTE","40.8964167574748","14.2572762152547","0","",""
"3101","SECONDIGLIANO - ACQUAROLA","40.89403646049","14.2597482996857","0","",""
"3102","SECONDIGLIANO - PISCINA COMUNALE","40.8911368550677","14.2627245422652","0","",""
"3103","SECONDIGLIANO - PARCO GIANTURCO","40.8897585908178","14.2641346152976","0","",""
"3104","ROMA VERSO SCAMPIA","40.8978641979032","14.2554317585206","0","",""
"3105","SECONDIGLIANO - VILLA ALFIERO","40.8877449230903","14.2662045082129","0","",""
"3106","SECONDIGLIANO - MAGLIONE","40.8851224990057","14.2688803944696","0","",""
"3107","SECONDIGLIANO - DI VITTORIO","40.8835921523663","14.270469920701","0","",""
"3108","SECONDIGLIANO - PISCINA","40.8913992014991","14.2621933834906","0","",""
"3109","SECONDIGLIANO - CHIESA","40.8943927815596","14.2591240554397","0","",""
"3110","SECONDIGLIANO - REGINA MARGHERITA","40.893001128053","14.2605462932649","0","",""
"3111","D'AURIA","40.8455905312179","14.2360869174129","0","",""
"3112","SECONDIGLIANO - DI VITTORIO","40.8834832161521","14.2703375873617","0","",""
"3113","VIA SUAREZ","40.8502395527442","14.2357422675468","0","",""
"3114","SECONDIGLIANO - AMATO","40.8859936645914","14.2677550504985","0","",""
"3115","CORSIA CARDARELLI","40.8653726460752","14.2267205143558","0","",""
"3116","S.TERESA DEGLI SCALZI - LEOPARDI","40.8557238648756","14.2485360356376","0","",""
"3117","S.TERESA DEGLI SCALZI ","40.858642568471","14.2485386457296","0","",""
"3118","S.TERESA DEGLI SCALZI  ","40.8585693479797","14.2483615006353","0","",""
"3119","S.TERESA DEGLI SCALZI","40.8565107957848","14.2483373114117","0","",""
"3120","S.TERESA DEGLI SCALZI","40.8540159876395","14.2491040454503","0","",""
"3121","CAPODIMONTE - MUSEO DI CAPODIMONTE E REAL BOSCO","40.8654193078784","14.249853412513","0","",""
"3122","GALILEO GALILEI - PISCINA COMUNALE","40.9021285824196","14.2319266083301","0","",""
"3123","NAPOLI - ROMA VERSO SCAMPIA","40.9035534932138","14.2496784709951","0","",""
"3124","SCARLATTI","40.8435672375109","14.2274104472441","0","",""
"3125","MONTESANO - M1 POLICLINICO","40.8654818713238","14.2216736917721","0","",""
"3126","CASTEL BELVEDERE ","40.9019914877967","14.1355585445332","0","",""
"3127","DELL'EREMO-PARCO PUBBLICO","40.8609160256125","14.1917436804729","0","",""
"3128","SEMMOLA - CANGIANI","40.8635258099806","14.2194866038192","0","",""
"3129","SEMMOLA - OSPEDALE PASCALE","40.8617500380644","14.2213169238759","0","",""
"3130","NAPOLI  A PISCINOLA","40.8922576496902","14.2397182498292","0","",""
"3131","SUAREZ-IMMACOLATA","40.8504994310402","14.2348898765279","0","",""
"3132","CASTEL BELVEDERE ","40.9016041813075","14.1301734822804","0","",""
"3133","FRULLONE -  M1","40.8799594751936","14.231210826496","0","",""
"3134","CASTEL BELVEDERE ","40.9020163372479","14.1382770358353","0","",""
"3135","VITTORIO VENETO","40.8879620777008","14.2454116445543","0","",""
"3136","VIA VENETO","40.8905516904346","14.2394754390922","0","",""
"3137","VITTORIO VENETO","40.8889107212469","14.2430861675776","0","",""
"3138","NAPOLI - ROMA VERSO SCAMPIA","40.9057646252377","14.2472693260923","0","",""
"3139","VITTORIO VENETO","40.8906124206744","14.2395323159018","0","",""
"3140","VITTORIO VENETO","40.8899697503079","14.2409784031629","0","",""
"3141","VITTORIO VENETO","40.8872827730617","14.24691497716","0","",""
"3142","VITTORIO VENETO","40.8889299047085","14.2432640028591","0","",""
"3143","NAPOLI - ROMA VERSO SCAMPIA","40.9002281898561","14.2532385571844","0","",""
"3144","TINO DA CAMAINO-DEGLI ARTISTI","40.8486002851745","14.2290424762001","0","",""
"3145","TINO DA CAMAINO-GIARDINI RUOPPOLO","40.8492448368991","14.2297853507618","0","",""
"3147","TOSCANELLA ","40.8803511219007","14.21850861659","0","",""
"3148","TOSCANELLA 47 FR.","40.8781762751623","14.2199346586069","0","",""
"3149","TOSCANELLA 107 FR.","40.883349902107","14.2177018406645","0","",""
"3151","TOSCANELLA 5","40.875426248071","14.2215631650131","0","",""
"3152","TOSCANELLA 57","40.8800633031069","14.2185743124029","0","",""
"3153","TOSCANELLA 83/E","40.8813368009116","14.2177374135691","0","",""
"3154","TOSCANELLA 109","40.8835205016247","14.2176197141114","0","",""
"3155","SCAGLIONE","40.877740942419","14.2390476588163","0","",""
"3156","S.IGNAZIO DI LOYOLA-REGGENTE","40.8641119106803","14.195961684062","0","",""
"3157","S. MARIA A CUBITO 649","40.8979045567605","14.2100451872567","0","",""
"3158","S. MARIA A CUBITO 603","40.896047300739","14.2137711956464","0","",""
"3159","S.MARIA A CUBITO ","40.8928760767726","14.2190260240133","0","",""
"3160","S.MARIA A CUBITO","40.8920219749207","14.2206059812395","0","",""
"3161","SCAGLIONE  361","40.8884798821722","14.2260823029365","0","",""
"3162","SCAGLIONE M1","40.8903637939927","14.2231775987563","0","",""
"3163","SCAGLIONE 253","40.8858683988933","14.2285032871577","0","",""
"3164","SCAGLIONE 115","40.8827512678725","14.231159601151","0","",""
"3165","SCAGLIONE 187","40.8849905002973","14.2292375252728","0","",""
"3166","DEL MARE","40.8899118303193","14.1792494435689","0","",""
"3167","S. MARIA A CUBITO 656","40.8931714353317","14.2187435820394","0","",""
"3168","S. MARIA A CUBITO ","40.8954068353951","14.2150965046148","0","",""
"3169","S. MARIA A CUBITO 790","40.8975804602519","14.2113905555177","0","",""
"3170","SCAGLIONE E. 460","40.8883494940634","14.2263853239149","0","",""
"3171","SCAGLIONE E. 382","40.8870964737967","14.227598779569","0","",""
"3172","SCAGLIONE E. 268","40.8852065227318","14.2292112796859","0","",""
"3173","SCAGLIONE E. 135","40.8832719254542","14.2308865177223","0","",""
"3174","SCAGLIONE E. 126","40.8815879737988","14.2323273177967","0","",""
"3175","S.MARIA A CUBITO ","40.8917088170975","14.2209212633344","0","",""
"3176","NUOVA S. ROCCO ","40.876593273211","14.2426034154839","0","",""
"3177","NUOVA S. ROCCO 111","40.8760897081745","14.244113419548","0","",""
"3178","NUOVA S. ROCCO","40.8754094239131","14.2461535259331","0","",""
"3179","NUOVA S. ROCCO","40.8750891128246","14.2474537153051","0","",""
"3180","NUOVA S. ROCCO 52","40.8756854006924","14.2456519436997","0","",""
"3181","NUOVA S. ROCCO 61A","40.8762506586221","14.2439306018293","0","",""
"3182","NUOVA S. ROCCO 112","40.8770691659133","14.2414088036826","0","",""
"3183","NICOLARDI 230","40.8733898220465","14.2372778298149","0","",""
"3184","NICOLARDI","40.8748833780497","14.2419335126375","0","",""
"3185","ZUCCARINI - M1 - PISCINOLA","40.8923378937277","14.2410967260021","0","",""
"3186","SCAGLIONE 55 ","40.8800419445375","14.2335142444987","0","",""
"3187","SCAGLIONE 29","40.8791714302332","14.234687400757","0","",""
"3188","NICOLARDI 292","40.8747898085075","14.2398345949434","0","",""
"3190","SANTACROCE-PARCO VIVIANI","40.848521974981","14.2389549541993","0","",""
"3191","SANTACROCE-METROPOLITANA","40.8513632921146","14.23883346657","0","",""
"3192","SANTACROCE LEONARDO","40.8491110728168","14.2367665812261","0","",""
"3193","SANTACROCE-PARCO PASTORE","40.8483181774415","14.2383771849231","0","",""
"3194","SANTACROCE-METROPOLITANA","40.8516347729183","14.2390201771812","0","",""
"3195","SANTACROCE-PARCO NUOVO","40.8500755157115","14.2388956571846","0","",""
"3196","SAN MARTINO-CERTOSA","40.8443775516442","14.2402301157237","0","",""
"3197","PIETRAVALLE - GATTO","40.868680800473","14.2258370232376","0","",""
"3198","PIETRAVALLE - DE AMICIS","40.8687374276743","14.223540167999","0","",""
"3199","QUAGLIARIELLO","40.8651869011637","14.2193484411031","0","",""
"3200","SANTACROCE-PARCO 40","40.8493771044287","14.2385738520973","0","",""
"3201","PISCICELLI-RUOPPOLO","40.8515704536246","14.2279848139754","0","",""
"3202","NIUTTA - MEDAGLIE D' ORO","40.8514406099296","14.2307979846957","0","",""
"3203","GUANTAI AD ORSOLONE-INPS","40.8683172649267","14.2061486912407","0","",""
"3204","GUANTAI AD ORSOLONE - SEDE INPS","40.8681616745363","14.2064472128072","0","",""
"3207","PALERMO - ARENELLA","40.8538565292078","14.2297022831198","0","",""
"3208","PALERMO - ARENELLA","40.8538729201442","14.2294588814052","0","",""
"3209","DELL'EREMO 45","40.8626335890292","14.1913134386749","0","",""
"3210","S.IGNAZIO DI LOYOLA-CAMALDOLI","40.8640963712644","14.1911621547388","0","",""
"3211","PIAZZETTA NAZARETH","40.8687469612809","14.1914941978911","0","",""
"3212","PIAZZA MADONNA DELL'ARCO CIMITERO","40.8875287382728","14.255663354906","0","",""
"3213","DIETRO LA VIGNA","40.8910155892006","14.2337556061146","0","",""
"3214","LAZIO ","40.8877400316004","14.252815142509","0","",""
"3215","PANSINI - POLICLINICO","40.8668285593515","14.2223343030904","0","",""
"3216","QUAGLIARIELLO 35E","40.8666427852065","14.2168453607398","0","",""
"3217","ALTAMURA - MARTINI","40.8513937315477","14.2251396133429","0","",""
"3218","ALTAMURA - GEMITO","40.8491278045815","14.2250889001638","0","",""
"3219","SCAGLIONE ","40.8801145965113","14.2336024214791","0","",""
"3221","ANGELINI  S. ELMO","40.8446234619181","14.239544036052","0","",""
"3222","ANGELINI-DALBONO","40.8456301164971","14.2375615699256","0","",""
"3223","GALILEO GALILEI - PARCO ENEL","40.9011434516966","14.2341492467723","0","",""
"3225","ARENELLA - MUZII ","40.8536884607192","14.2308402040368","0","",""
"3226","ARENELLA - GIGANTE","40.8536092113614","14.2311139913735","0","",""
"3228","RIBERA - GEMITO","40.8451724490178","14.223643274316","0","",""
"3229","BAKU' - CERVI","40.9047159378285","14.2417572656221","0","",""
"3230","BAKU' - CERVI","40.9048673679298","14.2414972958792","0","",""
"3231","BIANCHI - II^ TRAVERSA","40.8667936101575","14.2151793360946","0","",""
"3232","BIANCHI - MONTELUNGO","40.8667727662589","14.2154258077022","0","",""
"3233","BIANCHI ","40.8644171620658","14.2187523206642","0","",""
"3234","BIANCHI - II^ TRAVERSA","40.8659661314608","14.2166931395542","0","",""
"3235","BIANCHI - CANGIANI","40.8657284989624","14.2168531655354","0","",""
"3236","QUATTRO GIORNATE - STADIO COLLANA","40.8458867633144","14.2253787352326","0","",""
"3237","CORSO CAMPANO 149","40.8943709391399","14.2310161881584","0","",""
"3238","CORSO CAMPANO 46 A","40.8935375030324","14.2209235531386","0","",""
"3239","VIA ANGELINI","40.8454919606986","14.237920807773","0","",""
"3240","PANSINI SEMMOLA","40.8637261166396","14.2211335911032","0","",""
"3241","DEL CASSANO 209","40.8919960039968","14.2703360689886","0","",""
"3242","CORSO CAMPANO","40.8939392232057","14.2264033102663","0","",""
"3243","CORSO CAMPANO 116","40.8940494610335","14.2280669574302","0","",""
"3244","CORSO CAMPANO 170","40.894274783906","14.2314565363559","0","",""
"3245","CORSO CAMPANO 93","40.8941124668953","14.2273866000358","0","",""
"3246","CORSO CAMPANO 51","40.8936973020214","14.221909947794","0","",""
"3247","NAZARETH ","40.8674564296193","14.18987529824","0","",""
"3248","CAPODIMONTE - BASILICA DELL'INCORONATA E CATACOMBE DI S.GENNARO","40.8655933929453","14.2473001676301","0","",""
"3249","CAPODIMONTE ","40.8664897517043","14.2486872693671","0","",""
"3250","CAPODIMONTE - BASILICA DELL'INCORONATA E CATACOMBE DI S.GENNARO","40.8655718610167","14.2474517040585","0","",""
"3251","CAPODIMONTE","40.8670034948503","14.2487289282083","0","",""
"3253","CAPODIMONTE","40.8658762645786","14.2492370791147","0","",""
"3254","FALCONE-CALATA SAN FRANCESCO","40.8399677330272","14.2252934491698","0","",""
"3255","FALCONE-VACCARO","40.8419645039528","14.2261776318799","0","",""
"3256","FALCONE-WINSPEARE","40.8389430687003","14.2196178727557","0","",""
"3257","PORTA MIANO","40.8791531252753","14.2492601619175","0","",""
"3258","FALCONE-WINSPEARE","40.8384892245919","14.2188450977667","0","",""
"3259","FALCONE-KAGOSHIMA","40.8388002507632","14.2198122938853","0","",""
"3260","FALCONE-PARCO LAMARO","40.8394981617457","14.2224462432371","0","",""
"3261","FALCONE-CALATA SAN FRANCESCO","40.8399717600926","14.2245520577812","0","",""
"3262","FALCONE","40.8396556945948","14.2277939188522","0","",""
"3263","FALCONE-GIORDANO","40.8402169618927","14.2288786681812","0","",""
"3264","FALCONE CHIESA SAN FRANCESCO","40.8401548598909","14.2290217264674","0","",""
"3265","FALCONE-BELVEDERE","40.8397848161399","14.2275700175701","0","",""
"3266","PIAZZETTA FALCONE","40.840758571257","14.2276980873956","0","",""
"3268","FALCONE-PARCO LAMARO","40.8393659924163","14.2222164903921","0","",""
"3269","F.LLI CERVI - SMS PERTINI","40.9062975748245","14.241178183039","0","",""
"3270","F.LLI CERVI - PARCO LE RONDINI","40.9049206369032","14.2427493011862","0","",""
"3271","F.LLI CERVI - PRATI","40.9086195956552","14.2388095347947","0","",""
"3272","F.LLI CERVI -PARCO DELLA GIOIA","40.9034365637008","14.2451586094789","0","",""
"3273","F.LLI CERVI - BAKÙ","40.9051318853487","14.2426815890815","0","",""
"3274","F.LLI CERVI - LOTTO U","40.9063851887632","14.2408031700351","0","",""
"3276","F.LLI CERVI - MATERNA MONTALE","40.9087491467176","14.2386477527813","0","",""
"3277","GEMITO - STADIO COLLANA","40.8446995553298","14.224989239131","0","",""
"3278","GEMITO-ROSSINI","40.8472458349837","14.2252027611178","0","",""
"3279","GIGANTE - ORSI","40.8536027279216","14.2328462024587","0","",""
"3280","GIGANTE-CANNETO","40.8552194761644","14.2348444719673","0","",""
"3281","GIGANTE ","40.8546783274676","14.2340676651344","0","",""
"3282","GIGANTE-CANNETO","40.8547244896323","14.2355946424413","0","",""
"3287","GIOTTO-RUOPPOLO","40.8502705626361","14.228254964131","0","",""
"3288","GIOTTO-MEDAGLIE D'ORO","40.850393959453","14.2298699168459","0","",""
"3289","S.MARIA A CUBITO 840","40.8981097072381","14.2084341059625","0","",""
"3292","ACITILLO","40.8460900164251","14.2227843897606","0","",""
"3293","CUPA CAPODICHINO ","40.8857306909853","14.2597221653793","0","",""
"3295","IMBRIANI-ROSA","40.8531098750433","14.2452586252643","0","",""
"3297","CARACCIOLO POGGIO","40.852866049639","14.2358621773889","0","",""
"3298","CARACCIOLO-S.ROSA","40.8522750792731","14.2384463586297","0","",""
"3299","CORSO ITALIA 49","40.8999612638113","14.1948242825836","0","",""
"3300","CARDARELLI - OSPEDALE CARDARELLI","40.8659045452442","14.2269254422973","0","",""
"3301","CARDARELLI-OSPEDALE","40.8649125911459","14.2267723613777","0","",""
"3302","CASTELLINO-SCHIAPPOLI","40.8523215620495","14.2264783011483","0","",""
"3303","CASTELLINO-DELL'ERBA","40.853546362482","14.2257581515296","0","",""
"3304","CASTELLINO-C.N.R.","40.8552262401075","14.225062332441","0","",""
"3305","CASTELLINO 115","40.8565587245179","14.2249518886313","0","",""
"3306","CASTELLINO-MONTEDONZELLI","40.857851628919","14.2256546334297","0","",""
"3307","CASTELLINO-D'ANTONA","40.8610748880219","14.2247301653316","0","",""
"3308","CASTELLINO-JEMMA","40.8607018910235","14.2248561330136","0","",""
"3309","CASTELLINO 131","40.857624567514","14.2253784580625","0","",""
"3310","CASTELLINO-METROPOLITANA","40.8566210003266","14.2248354840917","0","",""
"3311","CASTELLINO-C.N.R.","40.8546995754332","14.2251099941016","0","",""
"3312","CASTELLINO-DELL'ERBA","40.8534106514651","14.2256707521395","0","",""
"3313","CASTELLINO-SCHIAPPOLI","40.8522307303846","14.2263666524292","0","",""
"3314","CAVALLINO - PARCO ICE SNEI","40.8587867980413","14.2307871638821","0","",""
"3315","CAVALLINO","40.8606637105671","14.2292407710558","0","",""
"3316","CARDARELLI","40.865174464645","14.2265425276023","0","",""
"3317","CAVALLINO - PRONTO SOCCORSO CARDARELLI","40.862351226288","14.2263200916578","0","",""
"3318","CAVALLINO","40.8620108877973","14.226614755556","0","",""
"3319","CAVALLINO","40.8608713043205","14.2286273045633","0","",""
"3320","CAVALLINO","40.8598029146275","14.230514377573","0","",""
"3321","CAVALLINO","40.8586134579318","14.2304599198446","0","",""
"3322","SALVATOR ROSA - ISTITUTO VICO","40.8516387282385","14.2411247343802","0","",""
"3323","CILEA - GEMITO","40.8432871531924","14.2239321724542","0","",""
"3324","CILEA","40.8430431977028","14.2211503999299","0","",""
"3325","CILEA - TANGENZIALE DI NAPOLI","40.8416697935671","14.2181411222992","0","",""
"3326","CILEA -SAN DOMENICO","40.8406581047343","14.2174685947348","0","",""
"3327","CILEA - SAN DOMENICO","40.8409244118892","14.2175514597934","0","",""
"3328","CILEA - TANGENZIALE DI NAPOLI","40.8421386618092","14.2192696095629","0","",""
"3329","CILEA - SANTA MARIA DELLA LIBERA","40.8428832219271","14.2208053083704","0","",""
"3330","CILEA - ACITILLO","40.8431184774327","14.2236316572181","0","",""
"3331","CILEA ","40.8433034335123","14.2256846087088","0","",""
"3332","COLLI AMINEI - IST. TEOLOGIA CAPODIMONTE","40.867732551173","14.2486346564339","0","",""
"3333","COLLI AMINEI - C.T.O. - MUSEO CAPODIMONTE","40.8693147747643","14.2474478954101","0","",""
"3334","COLLI AMINEI - C.T.O. ","40.8703236186716","14.2467452238804","0","",""
"3335","COLLI AMINEI ","40.8711575644949","14.2440953461495","0","",""
"3336","COLLI AMINEI ","40.8715706099765","14.2426505446762","0","",""
"3337","COLLI  AMINEI  ","40.8713605124546","14.240022615847","0","",""
"3338","COLLI AMINEI - TRIBUNALE","40.8706534251068","14.2386659968221","0","",""
"3339","COLLI  AMINEI ","40.8690620222301","14.2357234816534","0","",""
"3340","COLLI  AMINEI  ","40.8683992962049","14.231562962846","0","",""
"3341","TOSCANELA","40.8867606492241","14.2158782274632","0","",""
"3342","COLLI AMINEI ","40.868334280483","14.2305936219584","0","",""
"3343","COLLI AMINEI ","40.8682027826372","14.2331672192026","0","",""
"3344","COLLI AMINEI ","40.8690546261817","14.2359668341611","0","",""
"3345","COLLI AMINEI - TRIBUNALE","40.8706550304884","14.2389092517809","0","",""
"3346","COLLI AMINEI","40.8712387145371","14.2399943408097","0","",""
"3347","COLLI AMINEI","40.8715571551733","14.2418419755275","0","",""
"3348","COLLI AMINEI","40.871053646605","14.2440460929986","0","",""
"3349","COLLI AMINEI ","40.8701363184226","14.2470321522247","0","",""
"3350","COMUNALE VECCHIA DI MIANO - PIAZZA DI VITTORIO","40.8821038281177","14.2708720077864","0","",""
"3351","COLLI AMINEI - FACOLTÀ DI TEOLOGIA","40.8675927785888","14.248612503456","0","",""
"3352","AMEDEO DI SAVOIA 180","40.86009302803","14.2485578482926","0","",""
"3353","AMEDEO DI SAVOIA ","40.863038829586","14.2485720159352","0","",""
"3354","AMEDEO DI SAVOIA 280","40.8648584457689","14.2485633145235","0","",""
"3355","AMEDEO DI SAVOIA 269","40.8648301086993","14.2483619135714","0","",""
"3356","AMEDEO DI SAVOIA 205","40.8629924580038","14.2483678579651","0","",""
"3357","AMEDEO DI SAVOIA 193","40.8601367713722","14.248358613182","0","",""
"3358","CICCOTTI - RESISTENZA","40.8964028894353","14.2502602551657","0","",""
"3359","CICCOTTI - RESISTENZA","40.896517605813","14.250585429461","0","",""
"3361","MIANO - L IETI ","40.8740378570555","14.24856040583","0","",""
"3362","TOSCANELLA","40.8867844791247","14.216070831469","0","",""
"3363","MIANO ","40.8895047889573","14.2512936893134","0","",""
"3364","MIANO - MUSEO DI CAPODIMONTE E REAL BOSCO","40.8706563205264","14.2501087136324","0","",""
"3365","MIANO","40.8728175558113","14.2493010807864","0","",""
"3369","SUAREZ-IMMACOLATA","40.8504640464145","14.2344302465987","0","",""
"3370","NAPOLI A CAPODIMONTE ","40.8960174139569","14.2554168513889","0","",""
"3371","MIANO - CASERMA BOSCARIELLO","40.8921099220388","14.2529529474608","0","",""
"3372","NAPOLI A CAPODIMONTE 15","40.8965791784484","14.2559210325451","0","",""
"3373","MIANO 177A","40.890862779642","14.2523348653291","0","",""
"3374","MIANO CASERMA BOSCARIELLO","40.8925587182578","14.2533989938662","0","",""
"3375","VICINALE S.DOMENICO","40.8431512890264","14.2138450612926","0","",""
"3376","NAZARETH - PARCO PUBBLICO","40.8661539100537","14.1897576778139","0","",""
"3377","SCAGLIONE 23","40.8786858477158","14.2361765468598","0","",""
"3378","COLLI AMINEI-C.T.O.","40.8686171616369","14.2468387288122","0","",""
"3379","EUROPA - PIAVE","40.8382436793977","14.2154407633104","0","",""
"3380","EUROPA-SANTO STEFANO","40.8385848371375","14.2159421176555","0","",""
"3382","SCAGLIONE FR. 25","40.8789439814952","14.235707741953","0","",""
"3383","DELL'EREMO-LOYOLA","40.8650827480355","14.1898745608729","0","",""
"3384","DELL'EREMO - LOYOLA","40.8649562056508","14.1898138067159","0","",""
"3385","GUANTAI AD ORSOLONE","40.8673711629486","14.2015469304623","0","",""
"3386","GUANTAI AD ORSOLONE - ROTONDELLA","40.8682319122833","14.1957783508456","0","",""
"3387","GUANTAI AD ORSOLONE - LARDICHIELLO","40.8684154545525","14.1988525398702","0","",""
"3388","GUANTAI AD ORSOLONE","40.8671941124701","14.201997012229","0","",""
"3389","GUANTAI AD ORSOLONE","40.8675198116736","14.2035031038527","0","",""
"3390","GUANTAI AD ORSOLONE ","40.8683271676251","14.1932941209485","0","",""
"3391","PIAZZETTA NAZARETH","40.8685360130151","14.1916005964973","0","",""
"3392","GUANTAI AD ORSOLONE - LARDICHIELLO","40.8685386833503","14.1990854199218","0","",""
"3393","GUANTAI AD ORSOLONE","40.8675208562571","14.2036543881717","0","",""
"3394","CAMALDOLI HOSPITAL","40.87328860957","14.2037052945913","0","",""
"3395","GIGANTE - ORSI","40.8537189390857","14.2327113922898","0","",""
"3397","GAMBARDELLA ","40.8928678442225","14.2573277768513","0","",""
"3398","MIANO - DE MARTIN ","40.8720038924942","14.2495446493254","0","",""
"3401","GAETANO SALVATORE","40.8748256648664","14.2140312253936","0","",""
"3402","COMUNALE MARGHERITA-POSTE","40.875539937124","14.2123025319095","0","",""
"3403","CINQUE - DIR. CAMALDOLI HOSPITAL","40.8703745653708","14.2034378978594","0","",""
"3404","CINQUE","40.8692164348857","14.202952556213","0","",""
"3405","CAPODIMONTE - MUSEO DI CAPODIMONTE E REAL BOSCO","40.8659145296109","14.2523544781206","0","",""
"3407","SAN GIACOMO DEI CAPRI-CASTELLINO","40.8508020226524","14.2269052624084","0","",""
"3408","PIAZZETTA SANTACROCE","40.8735925392424","14.2115387985514","0","",""
"3409","LOMBARDIA","40.8922501931361","14.255141542763","0","",""
"3410","GHISLERI -PARCO LUCREZIA","40.9042608698118","14.2369538987591","0","",""
"3411","GHISLERI - PARCO DELLE PALME ISOL. 6","40.8982351579873","14.2501208476432","0","",""
"3412","GHISLERI","40.904617432492","14.2391106976591","0","",""
"3413","DELL'EREMO-POSTE","40.8639082013654","14.1906631154333","0","",""
"3415","GHISLER I - PARCO DELLE PALME ISOL. 6","40.8987761968684","14.2495122322793","0","",""
"3416","LABRIOLA - PARCO FIORITO","40.8939314282447","14.246589105561","0","",""
"3417","IANFOLLA ","40.8849626839971","14.2386118223562","0","",""
"3418","GAETANO ","40.875083659129","14.2195229536512","0","",""
"3419","SAN ROCCO  FR. 122","40.899696274367","14.1789603529951","0","",""
"3420","MARANO QUARTO ","40.8944075533899","14.1772554630216","0","",""
"3421","SIGNORELLI","40.9221537230655","14.2241880297988","0","",""
"3422","TONDO DI CAPODIMONTE","40.865454687351","14.2488235613489","0","",""
"3423","SIGNORELLI","40.9234397108698","14.2191116995879","0","",""
"3424","PIAZZA LIBERTA' - CHIESA","40.9008625698201","14.2510469011674","0","",""
"3426","COMUNALE MARGHERITA","40.8740943709765","14.2116506968347","0","",""
"3427","REGINA MARGHERITA","40.889139789338","14.2575386144685","0","",""
"3428","SALVATOR ROSA-PARCO CIS","40.854178355166","14.247064560659","0","",""
"3429","ROCCO DI TORREPADULA VILLA","40.8802344291477","14.2326574774758","0","",""
"3430","ROCCO DI TORREPADULA VILLA","40.8803603375818","14.2326263515389","0","",""
"3432","SALVATOR ROSA-MUSEO NAZIONALE","40.8535963989238","14.2489960754384","0","",""
"3433","SALVATOR ROSA-CAVONE","40.8530455244167","14.2460244690024","0","",""
"3434","FERMI","40.9161152591667","14.1964451937852","0","",""
"3435","SALVATOR ROSA-MAZZINI","40.851627544824","14.2427128045357","0","",""
"3436","SALVATOR ROSA-IST.VICO","40.8519416442028","14.240190863661","0","",""
"3437","SALVATOR ROSA - PONTECORVO","40.852744628141","14.2447821813865","0","",""
"3439","ROCCO DI TORREPADULA ","40.883748761366","14.2368987474357","0","",""
"3440","MARIANELLA","40.8895310833991","14.2326645269132","0","",""
"3441","CORSO ITALIA","40.9105578962171","14.1958979962","0","",""
"3442","CORSO ITALIA 68","40.9069393824619","14.195650932065","0","",""
"3443","LOMBARDIA ","40.8926148446744","14.2544162944795","0","",""
"3444","CORSO ITALIA 146","40.9025347954138","14.1950661427834","0","",""
"3445","GUERRA","40.8755570553335","14.1863497106391","0","",""
"3446","GUERRA-SMS 79° CIRCOLO","40.8706770632078","14.1886196784544","0","",""
"3447","S.IGNAZIO DI LOYOLA ","40.8629476356014","14.2008287953434","0","",""
"3448","S.IGNAZIO DI LOYOLA ","40.8633886527986","14.1994737728796","0","",""
"3450","S.IGNAZIO DI LOYOLA 186","40.8629756500299","14.2055361381202","0","",""
"3451","GUANTAI AD ORSOLONE - ROTONDELLA","40.8682606571556","14.1947337469176","0","",""
"3452","S.IGNAZIO DI LOYOLA 248","40.8635497174794","14.1993175792306","0","",""
"3453","STANZIONE -  MERLIANI","40.8454650802896","14.2295914075302","0","",""
"3454","S.IGNAZIO DI LOYOLA ","40.8632170582327","14.210519793533","0","",""
"3455","FERMI","40.9203972329036","14.1962419182593","0","",""
"3456","S.IGNAZIO DI LOYOLA 128","40.8631719659067","14.2091973096224","0","",""
"3458","S.IGNAZIO DI LOYOLA ","40.8630971615315","14.2107703955833","0","",""
"3459","S.IGNAZIO DI LOYOLA-PADRI GESUITI","40.8636736596875","14.2160497369778","0","",""
"3460","FRACANZANO","40.8443770010904","14.2263227603864","0","",""
"3461","EUROPA","40.9187138411729","14.22523785435","0","",""
"3463","MADONNA DELLE GRAZIE","40.9182387768804","14.2235089422034","0","",""
"3464","MADONNA DELLE GRAZIE","40.9181496157351","14.2177182450027","0","",""
"3465","PIOVANI","40.8928525386739","14.2330521529047","0","",""
"3466","DELL'ABBONDANZA 54","40.8927868439111","14.2318951739719","0","",""
"3467","MADONNA DELLE GRAZIE","40.921704916173","14.209166026598","0","",""
"3468","LABRIOLA - UNIVERSITÀ","40.8955708006598","14.2428559306047","0","",""
"3469","MADONNA DELLE GRAZIE","40.9219398003615","14.2082141302492","0","",""
"3470","MADONNA DELLE GRAZIE","40.9180484490516","14.2175531404856","0","",""
"3471","MADONNE DELLE GRAZIE","40.9181485114846","14.2233465682081","0","",""
"3472","CORSO EUROPA 42","40.8980427092764","14.1954975325918","0","",""
"3473","S.MARIA A CUBITO","40.8980070767723","14.2072629825066","0","",""
"3474","CORSO EUROPA ","40.8980515266858","14.2019527560582","0","",""
"3475","CORSO EUROPA 236","40.8980535567347","14.2035494986939","0","",""
"3476","SAN ROCCO 133","40.8987737136701","14.1720135870135","0","",""
"3477","PIROZZI","40.9241624114662","14.1963203975117","0","",""
"3479","MARCO DI TORREPADULA ","40.8839522167338","14.2370151040768","0","",""
"3480","MARISTI","40.924187723496","14.2006688265658","0","",""
"3482","COM. ACQUAROLA 50","40.8952123993292","14.2563043602757","0","",""
"3483","COM. ACQUAROLA ","40.8950775343205","14.2563444525606","0","",""
"3485","SAN ROCCO FR. CIV. 206 ","40.8997306784898","14.1762055857165","0","",""
"3486","DIETRO LA VIGNA","40.8935163386129","14.2352581220929","0","",""
"3487","TOGLIATTI","40.9231386204307","14.2024391907808","0","",""
"3488","CORSO UMBERTO 159","40.89952842265","14.1870562527442","0","",""
"3490","FERMI 115","40.9157721702218","14.1963335667369","0","",""
"3491","CORSO TALIA 31","40.9066766760218","14.1954403939636","0","",""
"3492","CORSO ITALIA 28","40.9050590745589","14.1953501730755","0","",""
"3493","FERMI 5","40.9228025026627","14.1962543451231","0","",""
"3495","FERMI 57","40.9184922671676","14.1962798390902","0","",""
"3496","PIROZZI","40.9237421913928","14.1962221883467","0","",""
"3497","CORSO ITALIA 37","40.9017200153097","14.1951324158541","0","",""
"3498","MEROLLA ","40.8979850469303","14.1911175157592","0","",""
"3499","PIAVE CHIESA","40.901383433118","14.1856830466441","0","",""
"3500","GHISLERI - IST. PERTINI","40.9004679938905","14.2457919125272","0","",""
"3501","MORO","40.9051016531695","14.2219768845974","0","",""
"3502","MORO","40.9076026821166","14.218919977971","0","",""
"3504","EUROPA","40.918977328889","14.2252790748626","0","",""
"3505","CASTEL BELVEDERE","40.9018826858076","14.1306714476605","0","",""
"3506","MARANO PIANURA ","40.8750684572082","14.1733783015329","0","",""
"3507","MARANO PIANURA 371","40.8747378569419","14.1731272584375","0","",""
"3510","MARANO PIANURA ","40.8749768794462","14.1820132207712","0","",""
"3511","MARANO PIANURA CHIESA VOLTO SANTO","40.8750984140961","14.1826377492659","0","",""
"3513","COMUNALE MARGHERITA","40.8791324845444","14.2103348738927","0","",""
"3514","CUP SANTA CESAREA ","40.8863403670754","14.2620833969182","0","",""
"3516","SECONDIGLIANO - QUADRIVIO ARZANO","40.8966924746425","14.25672703536","0","",""
"3517","COMUNALE VECCHIA DI MIANO","40.8841972043462","14.2664454766247","0","",""
"3518","F.LLI CERVI - PARCO LE RONDINI","40.9036702548526","14.2450787785242","0","",""
"3519","NAPOLI ","40.9066908289918","14.207239431699","0","",""
"3521","MARANO PIANURA ","40.8763856605969","14.1856897922342","0","",""
"3522","MARANO PIANURA 300","40.8754248204196","14.1766019151003","0","",""
"3523","PONTI ROSSI ","40.8699103038232","14.2566290728251","0","",""
"3525","MORO","40.9047457557184","14.2223732506942","0","",""
"3526","PONTI ROSSI ","40.8699906267626","14.256512472391","0","",""
"3527","MARANO PIANURA","40.8752639086977","14.1770728087849","0","",""
"3528","PONTI ROSSI ","40.8689585562199","14.2543227445944","0","",""
"3529","GHISLERI - CENTRO SOCIALE BUON PASTORE","40.9023438520573","14.2433693576446","0","",""
"3530","PONTI ROSSI ","40.8724548816664","14.2593894326745","0","",""
"3532","PONTI ROSSI ","40.8729644252326","14.2637005262878","0","",""
"3533","PONTI ROSSI ","40.8732509648021","14.2634303337295","0","",""
"3534","MUGNANO MELITO","40.9129935171238","14.2144284035976","0","",""
"3535","MUGNANO MELITO","40.9120177840281","14.2124260590073","0","",""
"3536","PONTI ROSSI ","40.8671856926004","14.2532034601142","0","",""
"3537","IANFOLLA ","40.8862732801605","14.2427007782802","0","",""
"3539","CORSO CAMPANO 198","40.8944140036838","14.2334255502307","0","",""
"3540","CORSO CAMPANO 205","40.8945241316762","14.2330533022614","0","",""
"3542","GRAN SASSO ","40.9023385913573","14.2494571229462","0","",""
"3545","SANTA TERESA DEGLI SCALZI 38","40.8543581812245","14.249085351596","0","",""
"3546","CICCOTTI - LABRIOLA","40.8933678680492","14.2483001823581","0","",""
"3547","SAN ROCCO-VILLA GIULIA","40.8971719102911","14.1686127297909","0","",""
"3549","GRAN SASSO - MONTE ROSA","40.9022544049813","14.2475970377736","0","",""
"3550","CASTEL BELVEDERE 303","40.9025329013821","14.1243377833517","0","",""
"3551","CASTEL BELVEDERE 1","40.9013001844895","14.1485856631434","0","",""
"3552","CASTEL BELVEDERE ","40.9012678457383","14.1460394427479","0","",""
"3553","DE PINEDO","40.8822183597472","14.272366886169","0","",""
"3555","CASTEL BELVEDERE ","40.901970271975","14.139346162943","0","",""
"3556","CICCOTTI - CASERMA ESERCITO","40.893424446625","14.2486883193231","0","",""
"3557","SAN ROCCO 182","40.8993800961786","14.17316177402","0","",""
"3558","S.IGNAZIO DI LOYOLA  212","40.8632356044692","14.2027386701998","0","",""
"3559","S.IGNAZIO DI LOYOLA ","40.8630579277446","14.202447126796","0","",""
"3560","S.IGNAZIO DI LOYOLA 200","40.8633598376986","14.2142795183476","0","",""
"3561","DIAZ 76","40.9095662439479","14.2086822147644","0","",""
"3562","CASTEL BELVEDERE ","40.9034405919148","14.1228713923268","0","",""
"3563","SAN ROCCO 276","40.8969478548155","14.1675233422412","0","",""
"3565","NAPOLI A PISCINOLA ","40.8898370476134","14.2387488430555","0","",""
"3567","MERCATO ","40.9101312039485","14.2117282854357","0","",""
"3568","GHISLERI - IST. PERTINI","40.9006623161995","14.2458906201587","0","",""
"3569","TAGLIAMENTO","40.9022110458804","14.1867978253354","0","",""
"3570","SAN ROCCO 353","40.8980010021115","14.1562556277542","0","",""
"3571","CRISPI","40.9062067974562","14.2136016478771","0","",""
"3573","CRISPI","40.906126393126","14.2156311161941","0","",""
"3574","VIA SUAREZ","40.8504057801488","14.234773262481","0","",""
"3576","SCAGLIONE","40.8778711607862","14.2389868261621","0","",""
"3579","NAPOLI 264","40.8997884786853","14.2089067878615","0","",""
"3580","BIVIO DI MUGNANO","40.8984936812445","14.2092546293607","0","",""
"3582","CAPODIMONTE - MUSEO DI CAPODIMONTE E REAL BOSCO","40.8657401150836","14.2518521296144","0","",""
"3583","PONTI ROSSI - CHIESA VOLTO SANTO","40.8690866570013","14.254629842184","0","",""
"3586","MARANO PIANURA ","40.8824511960715","14.1848380269484","0","",""
"3587","MORO","40.9089235826265","14.2133656341461","0","",""
"3588","SANTACROCE LEONARDO","40.8492336291556","14.2369093124409","0","",""
"3589","SAN ROCCO 80","40.8998694388592","14.1824130187338","0","",""
"3591","NICOLARDI 20","40.8690807236597","14.2344683620369","0","",""
"3592","NICOLARDI 142","40.8715640260668","14.2353772645519","0","",""
"3597","CIMAROSA - FLORIDIANA","40.8425771255468","14.2315766030306","0","",""
"3598","SAN DOMENICO","40.840526395479","14.2159815120463","0","",""
"3599","SAN DOMENICO","40.8419162393105","14.2150339786465","0","",""
"3600","SAN DOMENICO","40.8429751345152","14.2150956228985","0","",""
"3601","SAN DOMENICO ","40.8429339547345","14.2150012124414","0","",""
"3602","SAN DOMENICO","40.8419922993038","14.2149589445884","0","",""
"3603","SAN DOMENICO","40.8406593323785","14.2156596815468","0","",""
"3604","SAN DOMENICO","40.8424658591744","14.21306730636","0","",""
"3605","GHISLERI","40.904424122966","14.2391663419498","0","",""
"3606","GHISLERI - CENTRO SOCIALE BUON PASTORE","40.9026624150166","14.2424960507069","0","",""
"3608","GHISLERI - MERCATINO RIONALE","40.9015849626048","14.2444079476283","0","",""
"3611","SAN ROCCO ","40.8992284189254","14.1528832044816","0","",""
"3612","SOFFRITTO - IST. DARMON","40.8705953429194","14.1878878912374","0","",""
"3613","MARISTI","40.9242729940126","14.2010942456178","0","",""
"3615","MARANO PIANURA 233","40.8756883928659","14.1800907688924","0","",""
"3616","DIETRO LA VIGNA 85","40.8888341912327","14.2328667630127","0","",""
"3617","DIETRO LA VIGNA 3","40.8933342392846","14.2349664106932","0","",""
"3618","MADONNA DELLE GRAZIE","40.887574637952","14.2378637479775","0","",""
"3619","MARONE ","40.8848240308988","14.261622491833","0","",""
"3620","MARONE","40.8849331099343","14.2617755836095","0","",""
"3621","MAGELLANO","40.9218676674721","14.2043384726286","0","",""
"3622","CORSO MEDITERRANEO FR.24 ","40.900348626932","14.1858441420058","0","",""
"3623","SAN ROCCO","40.8969140860654","14.1603799980985","0","",""
"3626","SAN ROCCO-SAN MARCO","40.8964070132247","14.1647519223092","0","",""
"3627","GHISLERI - MERCATINO RIONALE","40.9012389107531","14.2445246743062","0","",""
"3628","DIETRO LA VIGNA","40.8872498911075","14.2343955118142","0","",""
"3630","DEI CILIEGI","40.8860537495336","14.2185691318449","0","",""
"3631","DEI CILIEGI","40.8861740039131","14.2183688987988","0","",""
"3632","SAN ROCCO-POSTE","40.899979662586","14.1757513525967","0","",""
"3633","SAN ROCCO 114","40.8998414492969","14.1791069600709","0","",""
"3634","SAN ROCCO ","40.8976454057047","14.1693161405128","0","",""
"3635","SAN ROCCO 368","40.8979678087637","14.1578765555561","0","",""
"3636","SAN ROCCO 400","40.8991650478703","14.1534538714587","0","",""
"3637","SAN ROCCO-DISTRIBUTORE","40.9001478917988","14.1511321919701","0","",""
"3638","CASTEL BELVEDERE 16","40.9013821096392","14.1432271719105","0","",""
"3639","SAN ROCCO-SAN MARCO","40.8961952135378","14.1637249859927","0","",""
"3640","SAN ROCCO ","40.8966213837668","14.1665984822489","0","",""
"3641","SAN ROCCO ","40.8997708278994","14.1850261110616","0","",""
"3642","LAZIO","40.9011574728065","14.1926222813771","0","",""
"3645","DELL'EREMO ","40.863763810889","14.190626309595","0","",""
"3646","CORSO CHIAIANO ","40.8885095901562","14.2163625835487","0","",""
"3647","COMUNALE VECCHIA DI MIANO","40.8825172536901","14.2692977789616","0","",""
"3648","COMUNALE VECCHIA DI MIANO ","40.8827453878073","14.2690489846769","0","",""
"3649","GUANTAI AD ORSOLONE","40.8684125808744","14.1926267762452","0","",""
"3650","CASTEL BELVEDERE 122","40.9021372379146","14.1351737562185","0","",""
"3651","MONTESANO - CANGIANI","40.8642072745827","14.2203507418168","0","",""
"3652","ROMANO-MARANO PIANURA","40.8734154078771","14.1721171776531","0","",""
"3653","SAN ROCCO ","40.9001379241071","14.1507571571218","0","",""
"3654","CARDINALE PRISCO","40.8712455104101","14.2451445842999","0","",""
"3657","ROSSINI - PISCINA COMUNALE","40.8477153638853","14.2240258314757","0","",""
"3658","NAPOLI 71 FR.","40.9051350873435","14.2076290466359","0","",""
"3660","IANNELLI 121","40.8560166670148","14.2187116141715","0","",""
"3664","S. FRANCESCO D'ASSISI ","40.8874842383545","14.2550495807646","0","",""
"3666","MIANELLA ","40.8843887476492","14.2555679737773","0","",""
"3667","NUOVA EPITAFFIO","40.8843654894011","14.2533634844512","0","",""
"3668","CUPA SANTA CESAREA ","40.8871215339928","14.258875769553","0","",""
"3669","CUPA SANTA CESAREA ","40.8866908270785","14.2605423561248","0","",""
"3670","MIANELLA","40.8858235598605","14.2573531233001","0","",""
"3671","CASTEL BELVEDERE","40.9012754598541","14.1428159814692","0","",""
"3672","BOSCO DI CAPODIMONTE","40.8716011149954","14.2457991731058","0","",""
"3674","CASTEL BELVEDERE","40.9021266705932","14.1260053010459","0","",""
"3677","LIETI","40.8741355775853","14.2469690401048","0","",""
"3678","CASTEL BELVEDERE","40.9018236849805","14.1276298880095","0","",""
"3679","BERNINI - FANZAGO","40.8467335857539","14.2314455521737","0","",""
"3680","NICOLARDI - CHIESA","40.8734160541511","14.2370037930623","0","",""
"3682","CORSO ITALIA 128","40.913006248672","14.1962750348637","0","",""
"3684","PONTI ROSSI ","40.8730088448546","14.2614897267566","0","",""
"3690","MARANO PIANURA","40.8758938949953","14.1855741724006","0","",""
"3692","REGINA MARGHERITA ","40.8919833487351","14.2612728416426","0","",""
"3700"," VANVITELLI","40.8440722711285","14.2315415401992","0","",""
"3706","GIACINTO GIGANTE","40.8541341434988","14.2369094387497","0","",""
"3707","CUPA CAPODICHINO ","40.8857677701266","14.2626980797393","0","",""
"3708","REGINA MARGHERITA","40.8905917102837","14.2594498853151","0","",""
"3710","TAFURI - PLEBISCITO","40.8928069092691","14.2376345456879","0","",""
"3711","RIONE DEI FIORI","40.899272322822","14.2642963101864","0","",""
"3712","CASTELLINO 136","40.8602546606037","14.2253300196026","0","",""
"3716","DEL CASSANO 217","40.8925089876162","14.2702592075786","0","",""
"3719","DEL CASSANO 172 FR.","40.8904264999109","14.2700090660371","0","",""
"3721","DEL CASSANO 178","40.8906615995063","14.2701489290435","0","",""
"3725","GERUSALEMME LIBERATA","40.8971855884129","14.2647943002961","0","",""
"3726","GERUSALEMME LIBERATA-ASL","40.8989712829878","14.2622962352531","0","",""
"3727","COM. SANTACROCE AD ORSOLONE-COTUGNO","40.8688356970525","14.2129112399427","0","",""
"3728","COM. SANTACROCE AD ORSOLONE ","40.8704026277543","14.212712900294","0","",""
"3729","COM. SANTA CROCE AD ORSOLONE","40.8732719202965","14.2114179941814","0","",""
"3730","GERUSALEMME LIBERATA","40.8976686677675","14.2642665910854","0","",""
"3731","GAETANO SALVATORE","40.8736982344693","14.2118461002136","0","",""
"3733","CAMPOSANTO ","40.8957542078125","14.2635280272685","0","",""
"3734","CAMPOSANTO","40.8958837168207","14.2638524590761","0","",""
"3737","GALIMBERTI - LABRIOLA","40.8974540311387","14.2354234979056","0","",""
"3740","ZUCCARINI - PARCHEGGIO","40.8956897517346","14.2363044928683","0","",""
"3742","MAGELLANO","40.9218989010919","14.2023399373639","0","",""
"3744","BERNINI - FUGA","40.8433811928603","14.2319261451423","0","",""
"3745","BERNINI - SOLIMENA","40.8445421483643","14.2317585312382","0","",""
"3746","FALCONE G.","40.8991496826272","14.1986618299501","0","",""
"3747","CASTEL BELVEDERE 6","40.9014417243109","14.1476251471729","0","",""
"3749","FALCONE-STADIO","40.8985011194909","14.2018345688658","0","",""
"3751","CALDIERI-MASCAGNI","40.8451015660495","14.2222832530355","0","",""
"3752","LABRIOLA - VV.FF.","40.8993394120811","14.2344668585732","0","",""
"3756","ZUCCARINI - STAZIONE M1","40.8944162995183","14.2384815610163","0","",""
"3757","GALIMBERTI - ZUCCARINI","40.8977765904857","14.2351615713193","0","",""
"3758","LABRIOLA - VV.FF.","40.8997596919206","14.2339989973776","0","",""
"3759","GALILEO GALILEI - PARCO DIANA","40.902195781831","14.23322588354","0","",""
"3762","GHISLERI - PARCO LUCREZIA","40.904302744726","14.2364755289752","0","",""
"3763","DELLA RESISTENZA","40.9034805103421","14.2343476964903","0","",""
"3767","ASPROMONTE ","40.8973576702099","14.2593076357568","0","",""
"3768","SALVATOR ROSA-PONTECORVO","40.8526644719866","14.2449224910578","0","",""
"3769","BAKU'-POSTE","40.9073491307374","14.2442414121935","0","",""
"3770","GALILEO GALILEI","40.9037414428524","14.2319851222372","0","",""
"3771","GALILEO GALILEI","40.9036890182635","14.2322291230477","0","",""
"3772","ASPROMONTE ","40.8964025741233","14.2578756257075","0","",""
"3775","ZUCCARINI - PARCHEGGIO","40.8956346648412","14.236147829612","0","",""
"3777","DEI CILIEGI-SOTTOPASSO","40.8891141105261","14.2208715740711","0","",""
"3788","MORO","40.9085313837242","14.2144554303174","0","",""
"3790","VICINALE TAVERNOLA","40.8992423423341","14.2327376193059","0","",""
"3791","VICINALE TAVERNOLA","40.8994935374434","14.2328528444029","0","",""
"3794","MORO A.","40.9073726654904","14.2190960764484","0","",""
"3795","CUPA PERILLO","40.9037036149343","14.2243042991845","0","",""
"3796","CUPA PERILLO","40.9034707091066","14.2245556226084","0","",""
"3798","NICOLARDI ","40.8691782908181","14.2342388038322","0","",""
"3799","NICOLARDI ","40.8716527390559","14.2351276225216","0","",""
"3801","NICOLARDI ","40.8749743363488","14.2398170995435","0","",""
"3804","MARANO PIANURA","40.8808564784238","14.184801216307","0","",""
"3805","DEL MARE ","40.8849316596025","14.1833802803761","0","",""
"3806","GUANTAI AD ORSOLONE","40.8681532279439","14.2104671018514","0","",""
"3808","MARANO QUARTO ","40.8954412126922","14.1810459415737","0","",""
"3809","MARANO QUARTO","40.8927999780759","14.1751015023768","0","",""
"3816","ALTAMURA-MARTINI","40.849052255944","14.2252410352415","0","",""
"3817","MUGNANO MELITO","40.9118745126023","14.2124200408649","0","",""
"3818","MUGNANO MELITO","40.912806678291","14.2143742112687","0","",""
"3819","MUGNANO MELITO","40.91390245846","14.2165491552982","0","",""
"3820","NENNI","40.9150163935646","14.2167586589202","0","",""
"3823","NENNI","40.9166017373784","14.2068597834848","0","",""
"3824","NENNI","40.914857895778","14.2166328746212","0","",""
"3826","MUGNANO MELITO","40.9140346827597","14.2165202824099","0","",""
"3828","MUGNANO GIUGLIANO","40.9201026375792","14.2057283278974","0","",""
"3829","MUGNANO GIUGLIANO","40.9199035741254","14.2056000773009","0","",""
"3830","MERCATO","40.9099557612153","14.2117600541147","0","",""
"3832","GUERRA ","40.8738225177806","14.1869245681151","0","",""
"3834","INGRESSO LOTTO P","40.9041117513169","14.232807790501","0","",""
"3835","VECCHIA S.ROCCO","40.8716143362438","14.2448941516275","0","",""
"3848","VITTORIO VENETO","40.8899716772564","14.2407237289598","0","",""
"3849","CAVALLINO","40.8610867324683","14.2285120850409","0","",""
"3852","LA CERTOSA DI PARMA","40.9007709058022","14.2644729635249","0","",""
"3854","MORO ","40.9079341110527","14.216426113457","0","",""
"3857","S.GATTO - COLLI AMINEI","40.8686750553505","14.2276675184709","0","",""
"3863","BIANCHI","40.8681368498927","14.2125516526992","0","",""
"3864","COLLI AMINEI 74","40.868460440734","14.2346624048116","0","",""
"3865","S.MARIA A CUBITO 876","40.8981259638637","14.2068668228356","0","",""
"3866","SECONDIGLIANO - MONTE S.MICHELE","40.8899944137177","14.2636809252162","0","",""
"3867","SECONDIGLIANO - VILLA CIMMINO","40.8886204896652","14.2650671653877","0","",""
"3868","VITTORIO VENETO","40.8877657828675","14.2455629487262","0","",""
"3869","LABRIOLA - UNIVERSITÀ","40.8952628534116","14.2439174986982","0","",""
"3870","DEL MARE ","40.8866742699251","14.1814062705955","0","",""
"3871","DEL MARE","40.8874186353623","14.1803050607364","0","",""
"3872","DEL MARE","40.8914024405174","14.1799769338385","0","",""
"3873","DEL MARE ","40.8933391167744","14.1812321232604","0","",""
"3874","DEL MARE-CASALANNO","40.8950835914099","14.1814272667721","0","",""
"3875","DEL MARE ","40.8932119593291","14.1810853034736","0","",""
"3876","DEL MARE ","40.8917456932195","14.1801092091583","0","",""
"3877","DEL MARE - SAN CASTRESE","40.8896959243369","14.1792170250065","0","",""
"3878","DEL MARE ","40.8871095868151","14.1805492400737","0","",""
"3879","DEL MARE","40.8862135660484","14.1818600309334","0","",""
"3883","BATTAGLIA","40.8902064405305","14.2319635951756","0","",""
"3884","DELL'ABBONDANZA","40.8911302041246","14.2313504775345","0","",""
"3885","MUGNANO MARIANELLA","40.8921476875211","14.2283360348515","0","",""
"3886","MUGNANO MARIANELLA","40.8917366158506","14.2286916986911","0","",""
"3889","ZUCCARINI -  FRONTE STAZIONE M1","40.8938949218806","14.2400556405163","0","",""
"3899","FIORE - OSPEDALE SANTOBONO ","40.8486689765197","14.2312363470884","0","",""
"3900","PONTI ROSSI 285","40.8722084096171","14.2649664717056","0","",""
"3901","LABRIOLA - VELE","40.8978842112646","14.2378107238424","0","",""
"3902","LABRIOLA - IST. VIRGILIO","40.8968616042061","14.2398317427576","0","",""
"3903","LABRIOLA - PARCO FIORITO","40.8942731922213","14.2454028552051","0","",""
"3904","LABRIOLA - GOBETTI","40.8958939035712","14.2426741740839","0","",""
"3905","LABRIOLA","40.8970754719848","14.2401617024262","0","",""
"3906","LABRIOLA - GALIMBERI","40.8982333670524","14.2374832061428","0","",""
"3908","MARANO PIANURA","40.8756389335629","14.1756795031849","0","",""
"3909","S.GATTO - M1 COLLI AMINEI","40.8693784624348","14.2284544180904","0","",""
"3910","CORSO ITALIA 63","40.9126806569862","14.196088986184","0","",""
"3911","METRO CHIAIANO","40.8906802364275","14.2233489884548","0","",""
"3912","COLONNE SIGNORELLI-METRONORDEST","40.9264569765885","14.2173087328387","0","",""
"3913","LOMBARDIA - POSTE","40.8921421129481","14.2565405461395","0","",""
"3914","LOMBARDIA - POSTE","40.8920583769105","14.2568263832711","0","",""
"3916","GAMBARDELLA ","40.8931373457202","14.2572119884157","0","",""
"3921","MANDRACCHIO","40.8678183331536","14.1868983379664","0","",""
"3922","MANDRACCHIO ","40.8670663241925","14.1875631514776","0","",""
"3923","S.IGNAZIO DI LOYOLA - SAN ROMUALDO","40.8649964363973","14.1904405809482","0","",""
"3924","S.IGNAZIO DI LOYOLA 192","40.8630398140801","14.2050429481607","0","",""
"3926","MARANO PIANURA ","40.880775935571","14.1848763844032","0","",""
"3927","MIANO 137","40.8879420265948","14.2505047983932","0","",""
"3928","MARGHERITA-CIMITERO CHIAIANO","40.8847939509393","14.2121477099267","0","",""
"3934","GUERRA - SOFFRITTO","40.8694434967984","14.189981613908","0","",""
"3935","ROCCO DI TORREPADULA-METRO FRULLONE","40.8801579938658","14.2312361042272","0","",""
"3936","GHISLERI - PARCO DELLE PALME ISOL. 5","40.8998081946067","14.2475238452212","0","",""
"3937","GHISLERI - PARCO DELLE PALME ISOL. 5","40.8995784437326","14.2475175448776","0","",""
"3943","CASSANO - TAGLIAMONTE","40.8959716064577","14.2680465548103","0","",""
"3944","CASSANO - ITALIA","40.8943312589669","14.2695581429634","0","",""
"3945","MIRACOLO A MILANO 18","40.8998369640482","14.2617315909569","0","",""
"3946","PONTI ROSSI ","40.8668783769991","14.2530437506998","0","",""
"3947","PONTI ROSSI ","40.8711235564255","14.2639078268025","0","",""
"3948","CUPA DELL'ARCO","40.8960066293078","14.2616921422334","0","",""
"3950","MIANO - DEPOSITO A.N.M GARITTONE","40.8751965707208","14.2487371885678","0","",""
"3951","MIANO - POSTE","40.8770350098863","14.248852887618","0","",""
"3952","MIANO","40.8789984341012","14.2487950865273","0","",""
"3953","MIANO 38","40.8819585064644","14.2496191548846","0","",""
"3954","MIANO","40.8857884740707","14.2491515516351","0","",""
"3956","CORSO CAMPANO 64","40.8936626910935","14.2227888144768","0","",""
"3959","FALCONE G.-LICEO","40.8985297011958","14.2033483864146","0","",""
"3960","FALCONE G. 15","40.9009808862367","14.1970053421841","0","",""
"3961","CORSO ITALIA ","40.9056187989475","14.1955244550739","0","",""
"3962","CORSO ITALIA-VILLA DEI FIORI","40.9106850971272","14.1960537873383","0","",""
"3963","FERMI E.-ASL","40.9187455094001","14.1964252162089","0","",""
"3964","FERMI E. 64","40.9204793341985","14.1963893721946","0","",""
"3968","CHIESA 38","40.9082819452742","14.2067543855687","0","",""
"3969","NAPOLI 180","40.9021853254051","14.2083469286454","0","",""
"3970","MARANO QUARTO","40.8953928729136","14.1812157050198","0","",""
"3971","CORSO UMBERTO ","40.8984840637064","14.1884194730502","0","",""
"3974","SANTA CESAREA","40.8882196797481","14.2569500075798","0","",""
"3976","COMUNALE VECCHIA DI MIANO","40.8857536770841","14.264209414725","0","",""
"3979","IMBRIANI 152","40.8541340801474","14.2425885200699","0","",""
"3981","MICHELANGELO ","40.8476780575828","14.2321424554038","0","",""
"3982","MICHELANGELO ","40.8484645342682","14.2345376566915","0","",""
"3984","S.GATTO","40.8685716955225","14.230803286255","0","",""
"3986","NICOLARDI 110","40.8707377783601","14.2348239421561","0","",""
"3987","COLLI AMINEI 126","40.8684984765431","14.2293529655465","0","",""
"3989","PITLOO","40.8452658575754","14.2269980719724","0","",""
"3991","MARANO QUARTO-CESINA","40.894347991164","14.1777262750996","0","",""
"3995","COLONNE","40.9286148210569","14.2188274815879","0","",""
"4001","REPUBBLICHE  MARINARE","40.8451508884784","14.3048574252195","0","",""
"4003","ARGINE - PALERMO","40.8546992048209","14.3200469873172","0","",""
"4004","REPUBBLICHE MARINARE ","40.8338180802122","14.3185524669503","0","",""
"4005","ARGINE - ITIS","40.8635796592735","14.3399084514176","0","",""
"4006","ARGINE - MOTORIZZAZIONE","40.8525073346469","14.3149976292052","0","",""
"4007","ARGINE - HITACHI","40.8513207447586","14.3123909669997","0","",""
"4008","ARGINE","40.84914653997","14.3073389676028","0","",""
"4009","REPUBBLICHE MARINARE","40.8400035811671","14.3129865474671","0","",""
"4010","ARGINE - PROVINCIA","40.8577388574958","14.3269304244915","0","",""
"4011","ARGINE - CIMITERO","40.8556303564771","14.3221374551499","0","",""
"4012","IMPARATO FERRANTE - GALILEO FERRARIS","40.846714148666","14.3005965995528","0","",""
"4013","ARGINE - MOTORIZZAZIONE ","40.8521354088733","14.3145625023359","0","",""
"4014","ARGINE - HITACHI","40.851227100059","14.312549127205","0","",""
"4015","IMPARATO FERRANTE","40.8493549904438","14.3000854060647","0","",""
"4016","BARTOLO LONGO","40.8510815020422","14.3322812380318","0","",""
"4017","ARGINE - V.LE MARGHERITA","40.8590261559776","14.329788358915","0","",""
"4019","MASTELLONE - CIMITERO","40.8468776014447","14.3343118652247","0","",""
"4020","ARGINE","40.859403824506","14.3312231857005","0","",""
"4021","ARGINE - MARANDA","40.8571172341812","14.3260672806631","0","",""
"4022","ARGINE - CIMITERO","40.8556794020148","14.3228191554075","0","",""
"4023","METAMORFOSI","40.848084803304","14.338702737199","0","",""
"4024","FILICHITO-CHIESA","40.8818980019896","14.3470259469623","0","",""
"4026","BOTTEGHELLE-MARANDA","40.8607584585485","14.3279311889534","0","",""
"4028","BOTTEGHELLE","40.8649396266954","14.3292418938733","0","",""
"4029","BOTTEGHELLE - MADONNELLE","40.8671064434226","14.3297602962201","0","",""
"4030","VILLA ROMANA","40.8483467549105","14.346714928349","0","",""
"4032","SAMBUCO","40.8686466353136","14.3446040097893","0","",""
"4033","BOTTEGHELLE","40.8653580966515","14.3292853050924","0","",""
"4034","2 GIUGNO","40.8384668605726","14.3120165755782","0","",""
"4035","2 GIUGNO","40.8311566267306","14.3116499327941","0","",""
"4036","REPUBBLICHE MARINARE - PISCINA COMUNALE","40.8362456501076","14.3162384582799","0","",""
"4037","STIGLIOLA - VILLA ROMANA","40.8327858941791","14.32225157887","0","",""
"4038","SERAO - MORO","40.8701441016721","14.3561810757535","0","",""
"4039","REPUBBLICHE MARINARE - CIMITERO","40.837191397773","14.3146986648963","0","",""
"4040","SERAO","40.869204517742","14.3554524079794","0","",""
"4041","REPUBBLICHE MARINARE","40.8350444881289","14.3172441308435","0","",""
"4042","2 GIUGNO","40.8313350528944","14.3115182204245","0","",""
"4043","CONSIGLIO ","40.8061870093487","14.3406197365147","0","",""
"4044","CHIAROMONTE","40.8447672629329","14.318096005836","0","",""
"4045","VOLPICELLA","40.850143320493","14.3281309923525","0","",""
"4046","VOLPICELLA","40.8500908625095","14.3284043794343","0","",""
"4048","IMPARATO","40.8408326699362","14.3016382038915","0","",""
"4049","SAN MARTINO","40.8326859541169","14.3331260051308","0","",""
"4050","SAN MARTINO","40.8339903226501","14.3325347837497","0","",""
"4051","DON MINZONI - RICCARDI","40.8612342441574","14.3593019244281","0","",""
"4052","GARIBALDI","40.8202465386405","14.3276886665191","0","",""
"4053","BUOZZI","40.8371491686356","14.3197400437025","0","",""
"4055","BUOZZI","40.8392937708845","14.3183184705215","0","",""
"4056","SAN MARTINO","40.8355048645315","14.3311511705095","0","",""
"4057","RICCARDI -EUROPA","40.8566626984854","14.3504742638802","0","",""
"4058","RICCARDI - GIORDANO","40.8573443609052","14.353151984624","0","",""
"4059","RICCARDI - CENSI DELL' ARCO","40.855847156484","14.3472313865599","0","",""
"4060","DE MEIS - MATTIOLI","40.8540171058111","14.3414448570086","0","",""
"4061","DE MEIS ","40.855150272911","14.3450700325937","0","",""
"4065","DE MEIS - LONGO","40.8510695865144","14.3317340810512","0","",""
"4066","DE MEIS ","40.8548046581855","14.3436971887361","0","",""
"4067","DE MEIS - CENSI DELL' ARCO","40.855895927361","14.3470944672416","0","",""
"4068","DE MEIS ","40.8536578346739","14.3400543949699","0","",""
"4070","DE MEIS - APREA","40.8520134039564","14.3344947721193","0","",""
"4071","DE MEIS-RIONE DE GASPERI","40.8527697684512","14.336782856065","0","",""
"4072","DE MEIS - LONGO","40.8508691953608","14.3305764376975","0","",""
"4073","DE MEIS - EUROPA","40.8565719265218","14.3495526840547","0","",""
"4074","RICCARDI - GIORDANO","40.8573885849846","14.3530062122656","0","",""
"4076","CONSOLINI","40.865032330732","14.3418934530849","0","",""
"4077","F.LLI GRIMM - ASL","40.8673036348266","14.3342556846821","0","",""
"4078","F.LLI GRIMM - HEMINGWAY","40.868622547038","14.3310028755373","0","",""
"4079","F.LLI GRIMM - RIONE INCIS","40.867952934208","14.3359401645655","0","",""
"4081","FERRANTE IMPARATO ","40.8388271293118","14.3020465258449","0","",""
"4082","ARGINE","40.862539220362","14.3381215137709","0","",""
"4083","PASQUARIELLO","40.8679776049287","14.3363137144617","0","",""
"4086","FRATELLI GRIMM","40.8679493631713","14.3353201732192","0","",""
"4087","ARGINE-ITIS","40.8639064401895","14.3411303533514","0","",""
"4088","FERRANTE IMPARATO ","40.8385402619513","14.3022778646083","0","",""
"4091","REGGIA DI PORTICI - ACIIEF SCUOLA FORMAZIONE","40.842343575301","14.2881222453216","0","",""
"4092","UMBERTO - VILLA COMUNALE","40.8111200305794","14.3372711833829","0","",""
"4093","HEMINGWAY - POSTE","40.869148722342","14.3339761362046","0","",""
"4094","HEMINGWAY - F.LLI GRIMM","40.8688648473091","14.3316204723488","0","",""
"4095","BARTOLO LONGO - DE MEIS","40.8499874172468","14.3330884768678","0","",""
"4096","BARTOLO LONGO - PARCO EUROPA","40.848668525953","14.3347921928331","0","",""
"4097","VOLTA - BRIN","40.8458279501003","14.2801311001864","0","",""
"4099","ACHILLE LAURO","40.8431916638577","14.3097574855876","0","",""
"4100","2 GIUGNO-ALVEO ARTIFICIALE","40.8324641930634","14.3120372844326","0","",""
"4101","BARTOLO LONGO ","40.8486000095888","14.3346267947351","0","",""
"4102","BARTOLO LONGO ","40.8496905539966","14.3331596672747","0","",""
"4104","ARGINE - STAZIONAMENTO","40.8580369416834","14.3289010508266","0","",""
"4105","ARGINE","40.8608152383711","14.333837146774","0","",""
"4106","ARGINE","40.860795835286","14.3343772108879","0","",""
"4107","MARTINEZ","40.8423727199086","14.3029256693012","0","",""
"4108","COZZOLINO - SEMMOLA","40.818025623801","14.3638367172022","0","",""
"4109","ARGINE","40.8648970302872","14.3433540979302","0","",""
"4110","ARGINE - CAVALCAVIA AUTOSTRADA","40.8478594239625","14.3045230568928","0","",""
"4111","PONTE DEI GRANILI","40.8409745735326","14.2920281764249","0","",""
"4112","CAVALC. PONTICELLI-VOLPICELLA","40.8461412956436","14.3169967974646","0","",""
"4114","MADONNELLE-CIRCUMVESUVIANA","40.8719725604455","14.3337466178573","0","",""
"4116","AUCHAN","40.8499512114599","14.3096701900206","0","",""
"4117","FLAUTO MAGICO","40.8680893301054","14.344097295931","0","",""
"4118","PRINCIPE DI NAPOLI-ARGINE","40.8589599757527","14.3281676820712","0","",""
"4119","PRINCIPE DI NAPOLI-ARGINE","40.8585744727038","14.328022079721","0","",""
"4120","D'ANNUNZIO ","40.7967849644349","14.3527807732945","0","",""
"4121","IV NOVEMBRE","40.8390259636777","14.3156879879983","0","",""
"4123","IV NOVEMBRE","40.838460853344","14.313819717815","0","",""
"4124","D'ANNUNZIO ","40.7984427207166","14.3509739397087","0","",""
"4125","FELLAPANE","40.8649151233946","14.328589856355","0","",""
"4126","REGGIA DI PORTICI-INGR.AUTOSTRADA - ACIIEF SCUOLA FORMAZIONE","40.8422591048928","14.2882381427334","0","",""
"4127","REGGIA DI PORTICI - POSTE ITALIANE","40.8427757442466","14.2863353501481","0","",""
"4129","REGGIA DI PORTICI-GIANTURCO","40.8433761827752","14.2851041429687","0","",""
"4130","VOLTA - S.ERASMO","40.8446388269576","14.2824014234338","0","",""
"4131","D'ANNUNZIO ","40.7970054877531","14.3522827470679","0","",""
"4132","REGGIA DI PORTICI-GIANTURCO","40.8430222274679","14.286134016302","0","",""
"4133","REGGIA DI PORTICI","40.8430641199335","14.2863530154176","0","",""
"4134","S.GIOVANNI A TEDUCCIO - TARTARONE","40.836700776315","14.301982836452","0","",""
"4136","REGGIA DI PORTICI - S.ERASMO","40.84416490476","14.2837315049543","0","",""
"4137","D'ANNUNZIO-VILLA COMUNALE","40.7947822157951","14.3552979285356","0","",""
"4138","S.GIOVANNI A TEDUCCIO - STAZIONE FS","40.8330155117606","14.3074075016909","0","",""
"4139","S.GIOVANNI A TEDUCCIO - STAZIONE FS","40.833046557202","14.3072189080619","0","",""
"4140","PONTE DEI GRANILI-SOTTOPASSO","40.8412153281423","14.291007348724","0","",""
"4141","PONTE DEI GRANILI-SOTTOPASSO","40.8414440702728","14.2905334421435","0","",""
"4142","REPUBBLICHE MARINARE - RIONE VILLA","40.8419307475163","14.3110794205971","0","",""
"4143","REPUBBLICHE MARINARE","40.8432699395421","14.3076329249226","0","",""
"4144","VIALE DEL COMMERCIO","40.7927358330236","14.3582267414922","0","",""
"4145","REPUBBLICHE MARINARE","40.842710040323","14.3092054533413","0","",""
"4146","REPUBBLICHE MARINARE - RIONE VILLA","40.841772101924","14.3109120317023","0","",""
"4147","REPUBBLICHE MARINARE - RIONE FORZATI","40.832647730771","14.3202041287496","0","",""
"4148","REPUBBLICHE MARINARE - POSTE","40.8312973575651","14.3218842514825","0","",""
"4149","REPUBBLICHE MARINARE","40.8303299616801","14.3235894702454","0","",""
"4150","COPPI ","40.8657700645147","14.3331022267157","0","",""
"4151","REPUBBLICHE MARINARE - RIONE FORZATI","40.8327884299715","14.3196215384921","0","",""
"4152","PONTE DEI FRANCESI","40.8395631768437","14.295393453251","0","",""
"4153","PONTE DEI FRANCESI - PAZZIGNO","40.8385443631399","14.2989424276644","0","",""
"4154","PONTE DEI FRANCESI - CROCE ROSSA ITALIANA","40.8385717953196","14.2984166834408","0","",""
"4155","S.GIOVANNI A TEDUCCI  - TARTARONE","40.8375411864693","14.3009302433317","0","",""
"4156","S.GIOVANNI A TEDUCCIO - SPERONE","40.8356619603794","14.3037461620743","0","",""
"4157","S.GIOVANNI A TEDUCCIO - SPERONE","40.8356826720566","14.3034464607315","0","",""
"4158","S.GIOVANNI A TEDUCCIO - DEP. ANM ","40.8343529370743","14.3055211476711","0","",""
"4159","S.GIOVANNI A TEDUCCIO - CHIESA","40.8320089219783","14.3089642877292","0","",""
"4160","S.GIOVANNI A TEDUCCIO - SAN GIOVANNI BATTISTA","40.8321055383618","14.3085511446359","0","",""
"4161","S.GIOVANNI A TEDUCCIO - DEP. ANM ","40.834025634326","14.3057706681878","0","",""
"4162","S.GIOVANNI A TEDUCCIO - MUNICIPIO","40.8299623017359","14.3116895616536","0","",""
"4163","S.GIOVANNI A TEDUCCIO - BIBLIOTECA","40.8300683429038","14.3113445314447","0","",""
"4164","S.GIOVANNI A TEDUCCIO ","40.8260847952698","14.3163339396461","0","",""
"4165","S.GIOVANNI A TEDUCCIO ","40.8287119148687","14.3134992117004","0","",""
"4166","S.GIOVANNI A TEDUCCIO ","40.825497347631","14.3167728248702","0","",""
"4167","S.GIOVANNI A TEDUCCIO ","40.8244720498293","14.3193389155668","0","",""
"4168","S.GIOVANNI A TEDUCCIO - CHIESA","40.8237638400712","14.3214540331248","0","",""
"4169","S.GIOVANNI A TEDUCCIO","40.8242875819106","14.3193734131491","0","",""
"4171","S.GIOVANNI A TEDUCCIO ","40.8235525397478","14.3215214091295","0","",""
"4172","S.GIOVANNI A TEDUCCIO - PIETRARSA","40.8230356084058","14.3224664656991","0","",""
"4174","S.GIOVANNI A TEDUCCIO - I° VICO MARINA","40.8275081199763","14.3148161522846","0","",""
"4175","VOLTA - LUCCI","40.8464483370999","14.2781478374175","0","",""
"4176","VESPUCCI -  LUCCI","40.846754266973","14.2766059911426","0","",""
"4177","VOLTA - BRIN","40.8453883570482","14.2806963839366","0","",""
"4178","A.VOLTA-PARCHEGGIO BRIN","40.8457187347328","14.280096694357","0","",""
"4179","VIALE DEL COMMERCIO","40.7928404437836","14.3582470698863","0","",""
"4180","VOLPICELLA","40.8495479905866","14.3264524230235","0","",""
"4181","VOLPICELLA - ABBEVERATOIO","40.8476071835864","14.3219226484481","0","",""
"4182","VOLPICELLA","40.8487754913589","14.3245206251521","0","",""
"4183","VOLPICELLA - AUTOSTRADA","40.8468209136436","14.3191962946973","0","",""
"4184","VOLPICELLA ","40.8459931621795","14.312532041742","0","",""
"4185","VOLPICELLA ","40.8456009724985","14.3109672725112","0","",""
"4187","ARGINE - ISTITUTO AGRARIO","40.865125513015","14.343227460592","0","",""
"4188","VOLPICELLA","40.8493398068876","14.326282514415","0","",""
"4190","VOLPICELLA ","40.84860370076","14.3244126360986","0","",""
"4191","VOLPICELLA - CAVALCAVIA AUTOSTRADA","40.8467315707954","14.3193217679758","0","",""
"4192","VOLPICELLA  - ABBEVERATOIO","40.846984306293","14.3209354882582","0","",""
"4193","VOLPICELLA ","40.8460765544582","14.3144351328516","0","",""
"4195","MORO","40.8040887945698","14.3541293122589","0","",""
"4196","MORO","40.8041459408732","14.3540386588923","0","",""
"4197","TESTA","40.8435498871058","14.3016974619176","0","",""
"4198","VOLPICELLA ","40.8426486480875","14.3053604234503","0","",""
"4199","FALCONI","40.8415899852843","14.3663532102965","0","",""
"4202","STIGLIOLA - CENTRO POLIFUNZIONALE","40.8342702715045","14.3211452933423","0","",""
"4213","COPPI - BOLOGNA","40.8633207627865","14.333111964453","0","",""
"4215","DELLE GINESTRE-PALAZZETTO DELLO SPORT","40.9094987452","14.3526237909048","0","",""
"4225","BOCCARUSSO ","40.8469512437414","14.3731855406286","0","",""
"4226","REGGIA DI PORTICI ","40.8422187562113","14.2880405472964","0","",""
"4227","ARCORA-VIVIANI","40.9027688279155","14.3507802871627","0","",""
"4228","BARTOLO LONGO ","40.8426678694173","14.3400892822052","0","",""
"4233","ARGINE ","40.8671139941108","14.3475746497431","0","",""
"4234","ARGINE - DON MINZONI","40.8675020587839","14.3508934527504","0","",""
"4235","DON MINZONI ","40.8642557487384","14.3551197432001","0","",""
"4236","DON MINZONI - ARGINE","40.8668055804196","14.3527929360959","0","",""
"4237","DON MINZONI - ARGINE","40.8671832261047","14.3526676284994","0","",""
"4238","DON MINZONI - PLATANI","40.8628918760104","14.356892055272","0","",""
"4240","DON MINZONI ","40.8643886099507","14.354715013236","0","",""
"4241","RUBINACCI","40.8344287353002","14.3271603977408","0","",""
"4243","SERAO - ATTESTAMENTO","40.86976188907","14.354683618091","0","",""
"4244","RUBINACCI","40.8344895106003","14.3285914969295","0","",""
"4248","ARGINE - STAZIONAMENTO","40.8583128532591","14.3287306805737","0","",""
"4250","PETRARCA-CIMABUE","40.8742063009534","14.3520622126354","0","",""
"4256","CHIAROMONTE - FIGURELLE","40.84236039479","14.3121277217072","0","",""
"4267","RICCARDI ","40.8581944776144","14.3561633094213","0","",""
"4268","RICCARDI - GHANDI","40.8586116677843","14.3566664938347","0","",""
"4269","METAMORFOSI","40.8497790312723","14.3445101830165","0","",""
"4270","RICCARDI - P.ZZA DELLA LIBERTÀ","40.8600592652574","14.3594111340004","0","",""
"4271","DONZETTI","40.8573877380879","14.3832759644723","0","",""
"4272","FUSCO","40.8590122836558","14.3889264191575","0","",""
"4273","CAVOUR - ISTITUTO CASE POPOLARI","40.8611108384698","14.386308622406","0","",""
"4274","STARZOLLA","40.8574966319269","14.3817414425812","0","",""
"4275","S.GIACOMO","40.8572799027897","14.3782908425728","0","",""
"4278","BOCCARUSSO - MASSA DI SOMMA","40.8491460649013","14.3750837314812","0","",""
"4281","AMODIO","40.8545479103601","14.3790417229125","0","",""
"4282","MASSA","40.8544450003063","14.3791306327465","0","",""
"4283","PUGLIE ","40.8977206115725","14.3317000206626","0","",""
"4285","CAVALCAVIA PONTICELLI - VELOTTI","40.8445811629368","14.3159511329141","0","",""
"4286","PALERMO - SALGARI","40.8692994808679","14.3406170598927","0","",""
"4287","PALERMO - SALGARI","40.8704663890128","14.3391013417656","0","",""
"4288","SALGARI","40.8694827055111","14.3372213315181","0","",""
"4289","SALGARI - PALERMO","40.8709812772399","14.3393483975874","0","",""
"4290","FILICHITO-MONTEOLIVETO","40.8838701399922","14.3492973565545","0","",""
"4292","VOLPICELLA ","40.8480276902918","14.3231699069537","0","",""
"4293","DELLA VILLA ROMANA","40.8326243324621","14.323119021619","0","",""
"4297","BOCCARUSSO","40.8519598794311","14.375677172719","0","",""
"4298","MASSA POLLENA","40.8529099094481","14.3764453385005","0","",""
"4300","ATRIPALDI - REPUBBLICHE MARINARE","40.8333645889869","14.3180322889474","0","",""
"4301","BIANCHI","40.8213080555386","14.3510297666435","0","",""
"4307","BOTTEGHELLE","40.8713666345904","14.3188707601834","0","",""
"4308","BOTTEGHELLE ","40.8712943974407","14.3188418326351","0","",""
"4310","BARTOLO LONGO 304","40.8446332140306","14.3387827184594","0","",""
"4313","DIAZ - POSTE","40.8201642684976","14.3439112749586","0","",""
"4315","FELLAPANE","40.8652074276113","14.3269642213555","0","",""
"4317","DIAZ ATTESTAMENTO","40.8202850878645","14.347743199035","0","",""
"4319","DIAZ 77","40.8199200254234","14.3405726947516","0","",""
"4320","DIAZ - P.TTA COMES","40.8196228547545","14.3366625211197","0","",""
"4321","DIAZ - ROMA","40.8187226427769","14.3328651455859","0","",""
"4322","BOTTEGHELLE","40.8616096913626","14.3280768348528","0","",""
"4323","ARGINE - PALERMO","40.8545841661506","14.3203981560871","0","",""
"4324","ATRIPALDI","40.8315751599281","14.3132621289675","0","",""
"4325","ATRIPALDI","40.8318013077731","14.313419906777","0","",""
"4326","PETRARCA-MONTEOLIVETO","40.8756044320444","14.354801938034","0","",""
"4327","GARIBALDI - MORO","40.8215511293704","14.3250963200553","0","",""
"4328","GARIBALDI","40.8203748023603","14.3272841974019","0","",""
"4329","GARIBALDI","40.8186356665242","14.3295162023905","0","",""
"4330","GARIBALDI - CAMAGGIO","40.8171198387396","14.3322053267922","0","",""
"4331","GARIBALDI","40.8162323311879","14.3337319641069","0","",""
"4332","GARIBALDI - GIANTURCO","40.8150603550333","14.3351398646704","0","",""
"4333","MONTEOLIVETO","40.8790702890014","14.3527773380511","0","",""
"4334","UNIVERSITA'","40.8109621315933","14.3435816179498","0","",""
"4335","GARIBALDI-ROMA","40.8150481411596","14.3353652717605","0","",""
"4336","UNIVERSITA'","40.8122177931042","14.3413496849862","0","",""
"4337","GARIBALDI - BIBLIOTECA COMUNALE","40.8187891444482","14.3295739458815","0","",""
"4338","DON MINZONI - BUONANNO","40.8659425420726","14.3534774451615","0","",""
"4339","DON MINZONI","40.8658281634911","14.3536886356438","0","",""
"4340","GARIBALDI","40.8223434058316","14.3239315011522","0","",""
"4341","GARIBALDI - ISTITUTO MELLONI","40.8164349053077","14.3337121513085","0","",""
"4346","PINOCCHIO","40.8723956911937","14.336528301267","0","",""
"4347","PALERMO-MADONNELLE","40.8720502181151","14.334559994785","0","",""
"4348","B.CROCE","40.8244974723232","14.3265490857621","0","",""
"4351","LIBERTA'-LEONARDO DA VINCI","40.8161970262787","14.3432863521933","0","",""
"4352","LIBERTA'-STAZIONE CIRCUMVESUVIANA","40.8176453908357","14.3461089944841","0","",""
"4354","LIBERTA'-ASL NA 5","40.8196215933808","14.3498930198063","0","",""
"4355","DON MINZONI - COPPI","40.8633040358276","14.3564935330403","0","",""
"4356","PALERMO - ARGINE","40.8669007507673","14.3425424386136","0","",""
"4357","DE FILIPPO","40.8826399271285","14.3520768703352","0","",""
"4358","GRAMSCI 3","40.8849442657444","14.3527846447796","0","",""
"4364","REA","40.8516529096966","14.3415305508797","0","",""
"4368","PIAZZA POLI","40.8202752778794","14.3483984523266","0","",""
"4369","SAN CIRO","40.8142881555457","14.3387135600328","0","",""
"4370","SAN CIRO","40.8139006981474","14.3386966576513","0","",""
"4375","GIANTURCO","40.8109704615038","14.3359068952949","0","",""
"4380","PUGLIE TAVERNANOVA","40.9023701522322","14.3571504121407","0","",""
"4381","PUGLIE","40.9032323276557","14.3608546235778","0","",""
"4382","VIALE PLATANI","40.9070423765006","14.3617656620729","0","",""
"4383","PUGLIE","40.8975872688417","14.3318419368309","0","",""
"4384","VIALE DEI TIGLI, 27-29","40.9112377848613","14.3630830546199","0","",""
"4385","VIALE DEI TIGLI,FR.CIV.34","40.9118605930391","14.35896871496","0","",""
"4386","VIA PIGNA,81","40.9119454580751","14.3542285998126","0","",""
"4393","SAN PASQUALE","40.8100706594698","14.3368702928442","0","",""
"4394","GIANTURCO","40.8107577000264","14.3365047981899","0","",""
"4395","GIANTURCO - SAN PASQUALE","40.8103973510164","14.3365024595949","0","",""
"4401","CORALLO","40.7906215297896","14.3622841545196","0","",""
"4402","BARTOLO LONGO ","40.844768977231","14.3388940619923","0","",""
"4404","ATRIPALDI - REPUBBLICHE MARINARE","40.8334677755856","14.3179630343614","0","",""
"4405","ATRIPALDI - EX PRETURA","40.8326078587097","14.3159583361803","0","",""
"4407","SERAO","40.869154929891","14.3556863192867","0","",""
"4413","DEL CASSANO","40.9004074500967","14.2650168480436","0","",""
"4414","DEL CASSANO","40.8990371949501","14.2655662594271","0","",""
"4415","GIANTURCO","40.8128126732558","14.3359063118311","0","",""
"4416","LARGO ARSO","40.8253356663991","14.3295437653306","0","",""
"4417","PETRARCA ","40.8728237837687","14.3492275101169","0","",""
"4419","CORALLO","40.7906688951085","14.3623785236266","0","",""
"4420","PALAZZONE","40.7607976588519","14.4310439311181","0","",""
"4421","DE NICOLA ","40.7970522546233","14.3787256496062","0","",""
"4422","DE NICOLA ","40.7974851795569","14.3788223724495","0","",""
"4423","DE NICOLA ","40.7986487066586","14.3790901000835","0","",""
"4424","DE NICOLA","40.8001672871763","14.3783765351176","0","",""
"4426","COZZOLINO","40.7972876654783","14.3764415662482","0","",""
"4427","COZZOLINO","40.7973495680163","14.3762276154124","0","",""
"4438","PATACCA ","40.8385215276756","14.3636958450803","0","",""
"4439","NAPOLI ","40.8771381421004","14.3355320951612","0","",""
"4440","NAPOLI-VERGA","40.8750980028576","14.3340932796486","0","",""
"4441","COLOMBO","40.8768762106516","14.3376045179948","0","",""
"4445","TOGLIATTI ","40.8360123761213","14.354717447215","0","",""
"4447","TOGLIATTI ","40.8360184472775","14.3541925454641","0","",""
"4448","MIRANAPOLI","40.8365392300256","14.3611676605419","0","",""
"4450","TOGLIATTI - CHIESA","40.8364122459513","14.3593867750956","0","",""
"4453","COZZOLINO","40.8253248379049","14.3572966081464","0","",""
"4456","PLINIO ","40.8030180873632","14.3513087231767","0","",""
"4457","MORO ","40.8036995523859","14.3528290247711","0","",""
"4458","MORO ","40.8036429603607","14.3530986850251","0","",""
"4460","GRAMSCI","40.8046790026759","14.3546404803664","0","",""
"4461","GRAMSCI ","40.8052491394728","14.3551874178794","0","",""
"4465","GARIBALDI ","40.8450379614879","14.3725392697227","0","",""
"4466","L.GIORDANO  - S .SEBASTIANO","40.8483302610239","14.365084907463","0","",""
"4467","LIBERTA' - S .SEBASTIANO","40.8454448005633","14.362944567886","0","",""
"4469","LIBERTA' - REPUBBLICA","40.8424261899736","14.3652480112209","0","",""
"4473","PLINIO IL VECCHIO","40.8413368249656","14.3694723115366","0","",""
"4476","BELVEDERE - CANNONE","40.8446451247842","14.369390316734","0","",""
"4478","P.CO DEL SOLE - P.LE DELLE MIMOSE","40.8465013050535","14.3699660830948","0","",""
"4479","P.CO DEL SOLE - V.LE DELLE MIMOSE","40.8474377434654","14.3674185539626","0","",""
"4480","ROMA - BELVEDERE","40.844106569582","14.3702378705424","0","",""
"4484","POMILIO","40.8496622965491","14.3392072588725","0","",""
"4486","TOGLIATTI ","40.8362653059926","14.3580716295475","0","",""
"4492","F.LLI GRIMM - RIONE INCIS","40.8674687546357","14.3339900022439","0","",""
"4494","NAPOLITANO - PALAZZETTO DELLO SPORT","40.8630234455719","14.3348206362912","0","",""
"4495","2 GIUGNO-REPUBBLICHE MARINARE","40.8376984258166","14.3121017839135","0","",""
"4496","CROCE LAGNO","40.8233206053966","14.3242127062866","0","",""
"4499","POMILIO","40.8515731087962","14.3417537839033","0","",""
"4501","CAVALC. PONTICELLI - VELOTTI","40.8444604369924","14.316100653598","0","",""
"4504","DANTE-P.LE PADRE PIO","40.8755366101739","14.3427893093741","0","",""
"4507","FILICHITO-LUFRANO","40.8808844905625","14.3446294963614","0","",""
"4510","MADONNELLE-RIONE INCIS","40.8698022228297","14.3317089481648","0","",""
"4512","MADONNELLE-VIA NAPOLI","40.8739074295743","14.3343794171297","0","",""
"4513","ACHILLE LAURO","40.8456323210452","14.3124468015583","0","",""
"4519","ROMA-ROSSI","40.8763222008951","14.3407491375772","0","",""
"4520","ROMA ","40.8763431938545","14.3404818982658","0","",""
"4522","ROSSI-LOCALITA' CARAVITA","40.8694611068085","14.3508476214543","0","",""
"4528","ROSSI-ALIGHIERI","40.8750487189165","14.3425360094076","0","",""
"4530","BOTTEGHELLE 557","40.8637560648909","14.3287979409244","0","",""
"4531","BOTTEGHELLE-COM.PONTICELLI","40.8639463265585","14.3287631647565","0","",""
"4532","BARTOLO LONGO 370","40.8427744872884","14.3398302249759","0","",""
"4534","M.POMILIO","40.8497788375137","14.3391082288321","0","",""
"4538","BOCCARUSSO","40.8470007176895","14.3730065390009","0","",""
"4541","COLOMBO-LIBERTA'","40.8768457737636","14.3377947115599","0","",""
"4544","DANTE-CIMITERO VOLLA","40.8765828537293","14.3445977469355","0","",""
"4546","ROSSI-ALIGHIERI","40.8749243175793","14.3428369019414","0","",""
"4547","PIROMALLO","40.8452596727339","14.3718966030535","0","",""
"4550","ROSSI-SANZIO","40.8730318297769","14.3442886107307","0","",""
"4551","PONTE DEI FRANCESI - VIGLIENA","40.8401196305391","14.2938067934719","0","",""
"4552","PONTE DEI FRANCESI","40.8401667903867","14.2939560521055","0","",""
"4556","PONTE DEI GRANILI ","40.840942710026","14.2914763053578","0","",""
"4560","UMBERTO I","40.8274447877436","14.3308706182217","0","",""
"4561","UMBERTO","40.826434926117","14.3282481000856","0","",""
"4562","DE LAUZIERES","40.8315508075731","14.3353235346348","0","",""
"4565","S.GIOVANNI A TEDUCCIO - MARTIRANO","40.8289050180328","14.3134023435541","0","",""
"4569","S.GIOVANNI A TEDUCCIO - I° VICO MARINA","40.8275716323853","14.3148925842292","0","",""
"4570","S.GIOVANNI A TEDUCCIO","40.8380907822831","14.2994596105149","0","",""
"4575","LIBERTA'","40.8482237640819","14.3612956841867","0","",""
"4579","GIANTURCO","40.8126873307319","14.3360409494307","0","",""
"4593","DON STURZO","40.8716588315331","14.3396858117494","0","",""
"4594","BOCCARUSSO - MASSA DI SOMMA","40.8494571580849","14.3751401250643","0","",""
"4595","BOCCARUSSO","40.8479504869864","14.3745262555152","0","",""
"4601","GIORDANO","40.8495661760316","14.3629555157418","0","",""
"4630","PROVINCIALE DELLE BRECCE","40.8621266069372","14.3177670156342","0","",""
"4631","COMUNALE MARANDA","40.8621711981358","14.3230148843181","0","",""
"4633","PROVINCIALE DELLE BRECCE","40.8636846717098","14.3238233396394","0","",""
"4647","PALERMO - ARGINE","40.8644912591656","14.3261912872271","0","",""
"4648","HEMINGWAY - F.LLI GRIMM","40.8689852130383","14.332182931671","0","",""
"4649","HEMINGWAY - POSTE","40.8689731905984","14.3339986618085","0","",""
"4650","HEMINGWAY - SALGARI","40.8682230139531","14.3359107665903","0","",""
"4652","MARIA CALLAS","40.8695257977448","14.3415997616005","0","",""
"4653","CALLAS","40.8687941003675","14.3420342104401","0","",""
"4655","MARTIRI DELLA LIBERTA' - DE MEIS","40.8529339272098","14.3402751279051","0","",""
"4657","MASTELLONE - CIMITERO BARRA","40.8467670738975","14.3346718199428","0","",""
"4659","MASTELLONE 152","40.8460535617027","14.3320128282424","0","",""
"4660","MASTELLONE 100 FR.","40.8444929767804","14.3277669457942","0","",""
"4661","CHIAROMONTE - DAY HOSPITAL","40.8448426019935","14.3190297073375","0","",""
"4662","CHIAROMONTE - CIRCUMVESUVIANA","40.843827104359","14.314120239911","0","",""
"4663","CHIAROMONTE","40.8438732658042","14.314649685958","0","",""
"4669","VILLA BISIGNANO 11 A","40.8349345402058","14.3238130942941","0","",""
"4671","BISIGNANO - IV TRAVERSA","40.8367987798674","14.3260388428816","0","",""
"4672","BISIGNANO - IV TRAVERSA","40.8389462283285","14.3246192304187","0","",""
"4674","MASTELLONE - VELA","40.8427652028689","14.3203913820241","0","",""
"4677","REPUBBLICHE MARINARE","40.8304250464539","14.3244430060412","0","",""
"4686","REPUBBLICHE MARINARE - AUTOSTRADE","40.8454367047671","14.3021673056431","0","",""
"4688","PROVINCIALE DELLE BRECCE","40.862814541308","14.3221472706951","0","",""
"4703","PATACCA ","40.8384611769728","14.3633702365829","0","",""
"4704","REPUBBLICHE MARINARE - VOLPICELLA","40.8441158117385","14.3065004908207","0","",""
"4705","ROSSI-PETRARCA","40.8710288632338","14.3485063579322","0","",""
"4706","GARIBALDI","40.8214195131754","14.3256964955369","0","",""
"4714","MARITTIMA ","40.8083522885673","14.3380433520375","0","",""
"4715","MARITTIMA","40.806931458648","14.3396386865075","0","",""
"4716","BOTTEGHELLE","40.8666628688323","14.3295422752359","0","",""
"4718","2 GIUGNO - CIMITERO","40.8364101709503","14.3120913792039","0","",""
"4720","2 GIUGNO","40.8403284155487","14.3120271477252","0","",""
"4722","METAMORFOSI","40.8495983538608","14.3429952439881","0","",""
"4723","LIBERTA'-I TRAVERSA LIBERTA'","40.8148810707931","14.3407885910606","0","",""
"4724","VOLTA - BRIN","40.8457745202465","14.280374861023","0","",""
"4727","MALIBRAN","40.8606487108562","14.3362029647925","0","",""
"4728","MALIBRAN","40.8607373717947","14.3359558755235","0","",""
"4729","METAMORFOSI - BARTOLO LONGO","40.8482118768659","14.3382506789516","0","",""
"4733","CROCE LAGNO-LARGO ARGO","40.8247728136947","14.3268424868905","0","",""
"4734","S.GIORGIO VECCHIO - MORO","40.8327572311771","14.3461621705151","0","",""
"4736","FORMISANO","40.8372890573902","14.3494595039389","0","",""
"4737","TROISI","40.8317132372141","14.3389254694229","0","",""
"4738","GIANTURCO ","40.8322671843716","14.3423598656499","0","",""
"4741","SALVATOR ROSA - D'ACQUISTO","40.8388807656434","14.3449900005571","0","",""
"4742","GRAMSCI - LE MARGHERITE","40.8290211310576","14.3316412072306","0","",""
"4744","LAGNO-MUSEO PIETARSA","40.8233354515677","14.3240155519004","0","",""
"4745","BACHELET","40.8290618464017","14.341317421867","0","",""
"4746","MATTEOTTI","40.8307194242288","14.3423412391465","0","",""
"4748","MANZONI - PALAZZETTO DELLO SPORT","40.840372639183","14.3412092473081","0","",""
"4749","MANZONI - ISTITUTO COMMERCIALE","40.8389414222333","14.3421930846914","0","",""
"4751","PITTORE - GIANTURCO","40.832641353999","14.3416267630773","0","",""
"4752","TOGLIATTI ","40.8354486445249","14.3505775799363","0","",""
"4754","A.MORO - BRUNO","40.8337171037528","14.3454529743269","0","",""
"4755","MANZONI - LONGO","40.8405532191933","14.3412815947271","0","",""
"4757","MANZONI","40.8369030614018","14.3433400305048","0","",""
"4759","PITTORE - GIORDANO","40.8348889328088","14.3463784404995","0","",""
"4760","ROMA-VILLA VANNUCCHI","40.8303560156637","14.3366089360298","0","",""
"4761","BOTTEGHELLE","40.8263212186763","14.3274375741886","0","",""
"4763","TOGLIATTI ","40.8355376547326","14.3503869390131","0","",""
"4765","PIAZZA V.EMANUELE-MUNICIPIO","40.8286444604878","14.3342689112965","0","",""
"4766","CORSO UMBERTO-IST.S.SEBASTIANO AL VESUVIO","40.827460181125","14.3312091905425","0","",""
"4767","S.MARTINO-MARIO","40.8317650268467","14.3333452272853","0","",""
"4768","PACE","40.8296854329404","14.3335765660309","0","",""
"4769","CORSO UMBERTO-MARTIRI DELLA LIBERTA'","40.8268425678549","14.3295640001844","0","",""
"4772","VOLPICELLA ","40.8463604457167","14.3159743563509","0","",""
"4774","BARTOLO LONGO","40.8416429947808","14.3404523375977","0","",""
"4775","FRATELLI GRIMM","40.8677890849412","14.332524244601","0","",""
"4780","PIAZZA DELL'AUTONOMIA","40.8477313476032","14.3741776434124","0","",""
"4781","VOLTA - BRIN","40.844741057603","14.2823615544256","0","",""
"4782","VOLTA - LUCCI","40.8466121125081","14.2781830600439","0","",""
"4803","COZZOLINO ","40.8358195391216","14.3605311197033","0","",""
"4804","COZZOLINO ","40.8312000415688","14.3576105043508","0","",""
"4805","COZZOLINO ","40.8285505329843","14.3558067424532","0","",""
"4806","COZZOLINO ","40.8275659078145","14.3561275790458","0","",""
"4808","COZZOLINO ","40.821618044836","14.3597544469364","0","",""
"4809","COZZOLINO ","40.8217604763647","14.3594477256396","0","",""
"4810","SAN VITO ","40.8182699186351","14.3635514583894","0","",""
"4811","COZZOLINO - SEMMOLA","40.8179869215874","14.3636905261461","0","",""
"4812","COZZOLINO ","40.8163379991849","14.3660747883541","0","",""
"4813","COZZOLINO ","40.8162608129507","14.3659628783814","0","",""
"4814","COZZOLINO","40.8151938710555","14.3663815152244","0","",""
"4816","COOK ","40.818309965162","14.3618317085869","0","",""
"4817","COOK ","40.8221835054239","14.3675459034299","0","",""
"4818","SAN VITO ","40.8221666594508","14.3677595145146","0","",""
"4819","SAN VITO ","40.823064415766","14.3688419760987","0","",""
"4820","SAN VITO ","40.8238111639199","14.3703172325386","0","",""
"4821","SAN VITO ","40.8245103289054","14.3729847815802","0","",""
"4822","COOK ","40.82528131534","14.373255065211","0","",""
"4823","COOK ","40.8245479190649","14.3699633937101","0","",""
"4824","VESUVIO","40.8199516059071","14.3829202493604","0","",""
"4825","VESUVIO ","40.816326606326","14.3830842719037","0","",""
"4830","RESINA - VILLA DURANTE","40.8027372014684","14.3524973637442","0","",""
"4831","RESINA","40.8082076838102","14.3480176169028","0","",""
"4835","RESINA","40.8040255304208","14.3511070825243","0","",""
"4836","RESINA - POSTE","40.8054268412393","14.3499332980145","0","",""
"4837","RESINA","40.8093792792893","14.3459360727455","0","",""
"4838","UMBERTO ","40.8031905768905","14.3443718646223","0","",""
"4839","UMBERTO ","40.8032495492012","14.3444453781481","0","",""
"4840","UMBERTO ","40.8017940187776","14.3467091396758","0","",""
"4841","UMBERTO ","40.8015094385715","14.3473609752256","0","",""
"4842","ULIVI ","40.8136210117605","14.3561408810502","0","",""
"4843","PANORAMICA ","40.8127827732476","14.356866315994","0","",""
"4848","PANORAMICA ","40.8099034081094","14.3566540300346","0","",""
"4849","PANORAMICA ","40.8085418746652","14.3564270968103","0","",""
"4850","PANORAMICA 80","40.80826805854","14.3564368283716","0","",""
"4851","PANORAMICA 12","40.8085160420794","14.3542221383065","0","",""
"4852","PANORAMICA ","40.8083580055424","14.354152534829","0","",""
"4853","PANORAMICA ","40.8100312867507","14.3569699489964","0","",""
"4854","PANORAMICA ","40.81207060763","14.3575845882566","0","",""
"4855","IV NOVEMBRE","40.8074174305352","14.3517402238165","0","",""
"4863","TIRONE DI MOCCIA ","40.8065384132391","14.3549763572086","0","",""
"4864","TIRONE DI MOCCIA ","40.8079065854076","14.3531699121889","0","",""
"4866","VESUVIO ","40.8091969128988","14.3772993294627","0","",""
"4867","VESUVIO ","40.8102116205716","14.3783687636514","0","",""
"4868","VESUVIO ","40.8072905478909","14.3770978186848","0","",""
"4869","VESUVIO ","40.8071020368873","14.3772211024571","0","",""
"4870","VESUVIO ","40.8049814958382","14.3773950453715","0","",""
"4871","VESUVIO ","40.8053611729811","14.3776404605249","0","",""
"4872","METAMORFOSI","40.8494207638734","14.3434478013235","0","",""
"4881","VESUVIO ","40.8020323014262","14.3775915361698","0","",""
"4882","VESUVIO ","40.8021736348723","14.3779073327535","0","",""
"4883","COZZOLINO","40.8001592268002","14.373554801702","0","",""
"4884","COZZOLINO ","40.7999431002294","14.373568688059","0","",""
"4885","COZZOLINO","40.8016202589749","14.3722044436911","0","",""
"4886","COZZOLINO ","40.8040176159989","14.3707562703714","0","",""
"4888","COZZOLINO ","40.8075574864926","14.3690274555538","0","",""
"4889","COZZOLINO","40.8079133235827","14.368689157135","0","",""
"4890","COZZOLINO ","40.8111330948463","14.3680717470533","0","",""
"4892","TOGLIATTI ","40.8363905086435","14.3579073341039","0","",""
"4893","COZZOLINO ","40.831008844959","14.3572476557724","0","",""
"4894","COZZOLINO ","40.8285603850375","14.3559578560827","0","",""
"4895","COZZOLINO - SIANI","40.8266487910293","14.3564388589387","0","",""
"4904","METAMORFOSI - AMAZZONI","40.8485573998934","14.3405409693352","0","",""
"4905","MALIBRAN PARCO COMUNALE","40.8574511234195","14.3378336500986","0","",""
"4906","MALIBRAN - PARCO COMUNALE","40.8576407469363","14.337911848609","0","",""
"4907","MARTIRI DELLA LIBERTA' - CIRCUMVESUVIANA","40.8557761701769","14.3387223598898","0","",""
"4908","MARTIRI DELLA LIBERTA' - CIRCUMVESUVIANA","40.8555016021021","14.3387547509713","0","",""
"4909","MARTIRI DELLA LIBERTA' - DE MEIS","40.8538418358206","14.3398146003847","0","",""
"4910","MIRANDA","40.8559735403184","14.3408058045542","0","",""
"4911","MIRANDA","40.8570215086453","14.3437054222518","0","",""
"4912","METAMORFOSI - OSPEDALE DEL MARE","40.85037312492","14.3461758830877","0","",""
"4913","VILLA ROMANA","40.8481356371075","14.3463669242181","0","",""
"4916","POMILIO - CIRCUMVESUVIANA","40.8515798196425","14.3397754578084","0","",""
"4919","COPPI - ASL ","40.8655645316555","14.3333890754737","0","",""
"4920","PUGLIE-ARCORA","40.9017951773311","14.3498459364984","0","",""
"4921","METAMORFOSI - OSPEDALE DEL MARE","40.8505944890171","14.3462923415984","0","",""
"4922","PUGLIE","40.9024065776203","14.3396436690308","0","",""
"4923","PUGLIE-NAPOLI","40.9025320888886","14.3360960372562","0","",""
"4924","SALICE","40.8994837642481","14.3353991782654","0","",""
"4925","SALICE-CENTRO MERIDIANA","40.901465455126","14.3357027096593","0","",""
"4926","PUGLIE","40.9022065985693","14.339959096566","0","",""
"4927","PUGLIE-RIONE FICO","40.9014056074125","14.3478581346665","0","",""
"4928","PUGLIE-CASAMANNA","40.9016350784828","14.350209617663","0","",""
"4933","PANORAMICA","40.8116799351158","14.3577988096448","0","",""
"4934","COZZOLINO ","40.8021347475586","14.3715623989757","0","",""
"4938","FERRANTE IMPARATO - CIRCUMVESUVIANA","40.8408436300464","14.3018207589943","0","",""
"4942","COZZOLINO","40.8142437924175","14.3669395325636","0","",""
"4946","LIBERTA'-IV TRAVERSA LIBERTA'","40.8189193909775","14.3483761473159","0","",""
"4948","ARGINE - ISTITUTO AGRARIO","40.8644874943498","14.3419225784723","0","",""
"4949","BUOZZI","40.8357582533477","14.320652717488","0","",""
"4950","POMILIO - DE MEIS","40.8514596396952","14.3400257864808","0","",""
"4951","ARGINE - ISTITUTO AGRARIO","40.8627226089318","14.3381163538268","0","",""
"4956","REPUBBLICHE MARINARE - POSTE","40.8314341125778","14.322161568821","0","",""
"4957","RICCARDI - P.ZZA DELLA LIBERTÀ","40.8603566291898","14.3602388330165","0","",""
"4958","DON MINZONI - MOSCATI","40.8611368215899","14.3596024630033","0","",""
"4959","COZZOLINO ","40.8141577617522","14.3668573515746","0","",""
"4960","PROVINCIALE DELLE BRECCE","40.8613934993112","14.3141496680971","0","",""
"4962","MANZONI - PAPINI","40.8357664032383","14.3438494005205","0","",""
"4963","PITTORE - MANZONI","40.8343462479485","14.3444060228974","0","",""
"4964","S.MARTINO-STRADA","40.8338294193448","14.3320436191673","0","",""
"4965","NOSCHESE","40.834238606219","14.3303701425918","0","",""
"4966","MANZONI - CARDUCCI","40.8383386408447","14.3423295175261","0","",""
"4967","BOTTEGHELLE-PARCO S.MATTEO","40.827221940288","14.3266457614926","0","",""
"4968","2 GIUGNO-LAGHETTO","40.8340993017948","14.3120529984514","0","",""
"4969","ROSSI-SANZIO","40.8727907775836","14.3446707462268","0","",""
"4970","PUGLIE-MADRE TERESA DI CALCUTTA","40.9015543561783","14.3470819893891","0","",""
"4972","UMBERTO ","40.8002640485894","14.3493588001538","0","",""
"4973","COZZOLINO","40.8107386285337","14.3684193239046","0","",""
"4974","EINAUDI","40.8783385201196","14.3428476433303","0","",""
"4975","NAPOLI ","40.876873809216","14.3348392653618","0","",""
"4977","SALGARI  -POLIAMBULATORIO","40.8694658659321","14.3374262020283","0","",""
"4978","COZZOLINO ","40.8189633662432","14.3618847355941","0","",""
"4979","METAMORFOSI ","40.8505825455107","14.3468874110192","0","",""
"4981","CONSIGLIO ","40.8060207021526","14.3406806601595","0","",""
"4982","PLINIO","40.8023511709212","14.3504557392116","0","",""
"4983","GEN. NIGLIO  ","40.8014936611182","14.3517532982166","0","",""
"4984","COZZOLINO - CIMITERO","40.8232103267208","14.3585473481047","0","",""
"4988","VOLPICELLA - REPUBBLICHE MARINARE","40.8434124188093","14.306535699079","0","",""
"4989","QUARANTA - C.SO SIRENA","40.8344524088171","14.3222464680244","0","",""
"4990","SUOR MARIA DELLA PASSIONE BEATA","40.8410000093184","14.3227639664335","0","",""
"4991","MASTELLONE","40.8416212654727","14.3204119632842","0","",""
"5001","PIAZZALE TECCHIO ","40.8226958965257","14.1944236056058","0","",""
"5002","DELLA REPUBBLICA (VIRTUALE)","40.8320980212841","14.2257979107588","0","",""
"5004","CONTE DI RUVO","40.8511483723155","14.2515240887207","0","",""
"5006","POGGIOREALE","40.8666050173372","14.291017739645","0","",""
"5017","VIA PUGLIE","40.8795018714615","14.3149358444458","0","",""
"5018","FERMATA CTP","40.9229552543812","14.2253077054761","0","",""
"5019","FERMATA CTP","40.9258822944984","14.2242977792978","0","",""
"5020","FERMATA CTP","40.92788866044","14.2239432504698","0","",""
"5023","FERMATA VITUALE","40.9017060905983","14.1903967658846","0","",""
"5026","GEMITO - VIRTUALE","40.8434830299475","14.2249143263401","0","",""
"5027","VOLTA","40.8459751302724","14.2792802636645","0","",""
"5028","TORRE DEL GRECO","40.7604605629262","14.4310607380435","0","",""
"5035","TORRE DEL GRECO","40.7920159594579","14.3638536894025","0","",""
"5041","TORRE  DEL GRECO","40.7922511973174","14.3638162642776","0","",""
"5043","POLLENA - NODO VIRTUALE","40.8607075367239","14.386408702721","0","",""
"5045","CARDARELLI ","40.8640108377493","14.2261869610535","0","",""
"5048","CARMEN","40.8680336967922","14.34226887518","0","",""
"5106","DEPOSITO VIA PUGLIE","40.8794590888047","14.3151872588385","0","",""
"5111","ROTONDA SAN ROCCO","40.9005410153267","14.149999273855","0","",""
"5202","DEPOSITO CAV. AOSTA","40.8152353597189","14.1844037590872","0","",""
"5206","CAPOLINEA MERGELLINA","40.8252342765415","14.2205612827001","0","",""
"5402","SAN GIOVANNI A TEDUCCIO - DEPOSITO A.N.M.","40.8340140029396","14.305334916829","0","",""
"5511","VIRTUALE DOGANELLA","40.8706979997296","14.2820647986057","0","",""
"6201","PARCO MARGHERITA","40.8380186013456","14.2345097320024","0","",""
"6202","C.SO V. EMANUELE","40.8389434270415","14.2340531064845","0","",""
"6203","PALAZZOLO","40.8412219016456","14.2328739160032","0","",""
"6204","CIMAROSA","40.8423756111641","14.2318879341198","0","",""
"6205","PALAZZOLO","40.8411521816005","14.2326849322535","0","",""
"6206","C.SO V. EMANUELE","40.8389255278193","14.2337994800823","0","",""
"6207","MONTESANTO","40.8470169957736","14.2451654066873","0","",""
"6208","CORSO VITTORIO EMANUELE","40.8462995511074","14.2420604597539","0","",""
"6209","MORGHEN","40.8442596535195","14.2360625189056","0","",""
"6210","CORSO VITTORIO EMANUELE","40.8461673833966","14.2420955751623","0","",""
"6211","AUGUSTEO","40.8390899456299","14.2476779454532","0","",""
"6212","C.SO V. EMANUELE","40.8401793229464","14.2429278341136","0","",""
"6213","PETRAIO","40.8413036497605","14.238767063257","0","",""
"6214","P. FUGA","40.8423973898233","14.2337309995867","0","",""
"6215","PETRAIO","40.8411630904027","14.2387088089961","0","",""
"6216","C.SO V. EMANUELE","40.8400239073045","14.2429146371285","0","",""
"6218","MERGELLINA","40.8263911663872","14.2195278553788","0","",""
"6219","S. ANTONIO","40.8260757852711","14.2176561955255","0","",""
"6220","S. GIOACCHINO","40.8259500176973","14.2163139062835","0","",""
"6221","P.CO ANGELINA","40.8258066166314","14.2143114659555","0","",""
"6222","MANZONI","40.8259569619443","14.2127656017622","0","",""
"6223","P.CO ANGELINA","40.8257351044267","14.2143027116667","0","",""
"6224","S. GIOACCHINO","40.8258712933634","14.2163167527211","0","",""
"6225","S. ANTONIO","40.8259986751886","14.2176820574372","0","",""
"6231","MOSTRA","40.8242698138246","14.1937805952972","0","",""
"6232","AUGUSTO","40.8262259245742","14.1983198722478","0","",""
"6233","LALA","40.8269311971361","14.2045552357159","0","",""
"6234","MERGELLINA","40.8306699602005","14.2190806636098","0","",""
"6235","MERGELLINA","40.8308930352082","14.2190077527209","0","",""
"6236","ARCO MIRELLI","40.83126702681","14.2303829723714","0","",""
"6237","ARCO MIRELLI","40.8317172739568","14.2303495153776","0","",""
"6238","SAN PASQUALE","40.8321138523236","14.2389304785969","0","",""
"6239","SAN PASQUALE","40.8325083146744","14.238841226783","0","",""
"6240","CHIAIA","40.8352922032301","14.2479534408262","0","",""
"6241","CHIAIA","40.8355978022949","14.2476675474414","0","",""
"6243","LALA","40.8265722018241","14.204749271336","0","",""
"6244","AUGUSTO","40.8257670328559","14.1983965523779","0","",""
"6245","MUNICIPIO","40.8392791537251","14.2537647327287","0","",""
"6246","MUNICIPIO","40.8393603474914","14.2536605685189","0","",""
"6271","PIAZZA GARIBALDI","40.8526537477388","14.272512111573","0","",""
"6272","CAVOUR","40.855528834825","14.2547147928562","0","",""
"6273","MONTESANTO","40.8477117193631","14.2441646004136","0","",""
"6274","AMEDEO","40.838851767029","14.2319191247884","0","",""
"6275","MERGELLINA","40.8314549302208","14.2187429490008","0","",""
"6276","LEOPARDI","40.8243226931526","14.2000397732481","0","",""
"6277","CAMPI FLEGREI","40.8225337047753","14.194611151929","0","",""
"6278","CAVALLEGGERI AOSTA","40.8197748697894","14.1865811524463","0","",""
"6279","BAGNOLI","40.8198648023227","14.1668291647427","0","",""
"6280","POZZUOLI","40.8281527046958","14.1256909604695","0","",""
"6281","BAGNOLI","40.8196261387911","14.1667850902786","0","",""
"6282","CAVALLEGGERI AOSTA","40.8195327524661","14.1867382623393","0","",""
"6283","CAMPI FLEGREI","40.8222196813863","14.1947928256802","0","",""
"6284","LEOPARDI","40.8240642614884","14.200185182601","0","",""
"6285","MERGELLINA","40.8313239363505","14.2191955289108","0","",""
"6286","AMEDEO","40.8384486677051","14.2319902007796","0","",""
"6287","MONTESANTO","40.8476555516554","14.2444672947678","0","",""
"6288","CAVOUR","40.8553784567588","14.2548635951452","0","",""
"6289","PIAZZA GARIBALDI","40.8524322656968","14.2725404305876","0","",""
"6290","GIANTURCO","40.8538472631961","14.2873991235597","0","",""
"6291","GIANTURCO","40.8539148070352","14.2873480133151","0","",""
"6292","SAN GIOVANNI - BARRA","40.8322429339697","14.3074533634282","0","",""
"6311","PISCINOLA","40.8927076548968","14.2401276005625","0","",""
"6312","CHIAIANO","40.8909784539278","14.2235637886917","0","",""
"6313","FRULLONE","40.8807252334232","14.230757418571","0","",""
"6314","COLLI AMINEI","40.8702047086125","14.2283930870919","0","",""
"6315","POLICLINICO","40.8662497415433","14.221079022429","0","",""
"6316","RIONE ALTO","40.8608688204467","14.2200287834773","0","",""
"6317","MONTEDONZELLI","40.8555980785536","14.2239353595393","0","",""
"6318","MEDAGLIE D'ORO","40.8505037174218","14.230625279747","0","",""
"6319","VANVITELLI ","40.8438270601122","14.2316425053888","0","",""
"6320","QUATTRO GIORNATE","40.8463490902961","14.2253541795669","0","",""
"6321","S. ROSA","40.8514826337212","14.2360155408451","0","",""
"6322","MATERDEI","40.8553632564713","14.2429899168846","0","",""
"6323","MUSEO","40.8536498979693","14.2517506687097","0","",""
"6324","DANTE","40.8485785908933","14.2499291575849","0","",""
"6325","TOLEDO","40.8426962969155","14.2501808015203","0","",""
"6326","DANTE","40.8485486968773","14.2501279295856","0","",""
"6327","UNIVERSITA'","40.8432091043965","14.2556385960015","0","",""
"6328","UNIVERSITA'","40.8432576202389","14.2555356927682","0","",""
"6329","MUNICIPIO","40.8394293386585","14.2538368739092","0","",""
"6330","MUNICIPIO","40.8393562051277","14.253879434346","0","",""
"6333","TOLEDO","40.8427129775144","14.2502932621208","0","",""
"6335","MUSEO","40.8535406320592","14.2513652214269","0","",""
"6336","MATERDEI","40.8555488507114","14.2428003189776","0","",""
"6337","S.ROSA","40.8517127761954","14.2358371400437","0","",""
"6338","QUATTRO GIORNATE","40.8463381480573","14.225049685936","0","",""
"6339","VANVITELLI","40.8438337569062","14.2319966384343","0","",""
"6340","MEDAGLIE D'ORO","40.8506746240421","14.230904509842","0","",""
"6341","MONTEDONZELLI","40.8558111972433","14.2243056896908","0","",""
"6342","RIONE ALTO","40.8608618253851","14.2203101155827","0","",""
"6343","POLICLINICO","40.8659754579981","14.2213049097517","0","",""
"6344","COLLI AMINEI","40.8699839456976","14.2286417775774","0","",""
"6345","FRULLONE","40.8808270760295","14.2310199906979","0","",""
"6346","CHIAIANO","40.8908640969293","14.223823640793","0","",""
"6347","PIAZZA GARIBALDI","40.8521923528823","14.272537830945","0","",""
"6348","DUOMO","40.8476118924947","14.2617396615289","0","",""
"6349","DUOMO","40.8476878621027","14.2616457539083","0","",""
"8001","VIA BENEVENTO","40.9293280813393","14.361753340947","0","",""
"8002","POMIGLIANO D'ARCO","40.9127628854785","14.3857332493195","0","",""
"8003","BRUSCIANO","40.9185642872142","14.4187713895143","0","",""
"8004","MARIGLIANO","40.9249640085572","14.4533171803922","0","",""
"8005","NOLA","40.9330222797821","14.5043407376208","0","",""
"8006","MARIGLIANO2","40.9248169584267","14.4557854427841","0","",""
"8007","BRUSCIANO2","40.9185429704195","14.417094905366","0","",""
"8008","POMIGLIANO2","40.9117515710626","14.3883696761551","0","",""
"8010","SOMMA VESUVIANA","40.8722629951235","14.4376533003251","0","",""
"8012","ACERRA","40.9565233742084","14.3844603799985","0","",""
"8013","VIA BENEVENTO2","40.9296035667165","14.3603935222008","0","",""
"8014","TRECASE","40.7662322266066","14.4410206638049","0","",""
"8015","BOSCOTRECASE","40.7710088429566","14.4605584703717","0","",""
"8016","POMPEI","40.7473379778158","14.5045586882939","0","",""
"8017","SCAFATI","40.7651352811348","14.5450041847435","0","",""
"8018","POGGIOMARINO","40.7996098613951","14.5384445063191","0","",""
"8019","POGGIOMARINO2","40.800114673202","14.5361902163167","0","",""
"8020","SCAFATI2","40.7660764129651","14.5446717555855","0","",""
"8021","POMPEI2","40.7498551824906","14.5066148178041","0","",""
"8022","BOSCOTRECASE","40.7680726886627","14.4593338487043","0","",""
"8023","TRECASE2","40.7671937733069","14.4399669528013","0","",""
"8025","STAZIONE TAV","40.9272662025299","14.3292483029022","0","",""
"8026","CARLO III - MERIDIONALE","40.9264614756101","14.3022228061788","0","",""
"8027","VIA DONADIO","40.9296717581588","14.298440674783","0","",""
"8028","DONADIO - UMBERTO","40.9351888933758","14.3014239574299","0","",""
"8029","UMBERTO I","40.9460541796911","14.3013094665281","0","",""
"8030","CIRCUMVALLAZIONE OVEST - IST. MORANO","40.9515550355397","14.2927007616661","0","",""
"8031","CIRCUMVALLAZIONE OVEST - IACP","40.9453776299336","14.2885215561868","0","",""
"8032","CIRCUMVALLAZIONE OVEST - IACP","40.9470207890535","14.2893771373462","0","",""
"8033","CIRCUMVALLAZIONE OVEST - IST. MORANO","40.9515524745363","14.2979917826327","0","",""
"8034","UMBERTO I","40.9446384447221","14.3006984532794","0","",""
"8035","UMBERTO I","40.9366601111789","14.3008385243997","0","",""
"8036","DONADIO","40.9299805829166","14.2981796162379","0","",""
"8037","CARLO III - MERIDIONALE","40.9268741158237","14.3018822494217","0","",""
"ACTON1","ACTON_ASC1","40.8353407834236","14.2498237861755","0","",""
"ACTONA","ACTON_ASC","40.8353018099653","14.2499562587088","0","",""
"CHIAIA","CHIAIA_ASC","40.8358090155172","14.2447866909934","0","",""
"CHIAIA1","CHIAIA_ASC1","40.8356006692521","14.2449226666693","0","",""
"ECHIA","ECHIA_ASC","40.8304859165242","14.2485989499312","0","",""
"ECHIA1","ECHIA_ASC1","40.8306059020067","14.2484667219193","0","",""
"SANITA","SANITA_ASC","40.8593345089439","14.2485601203472","0","",""
"SANITA1","SANITA_ASC1","40.8593744360574","14.2484318951198","0","",""
"VENTA","VENTA_ASC","40.8491111704109","14.2446975218381","0","",""
"VENTA1","VENTA_ASC1","40.849249598978","14.245235344762","0","",""
